~Version ---------------------------------------------------
VERS.   2.0 : CWLS log ASCII Standard -VERSION 2.0
WRAP.    NO : One line per depth step
DLM . SPACE : Column Data Section Delimiter
~Well ------------------------------------------------------
STRT.m   0.00000 : START DEPTH
STOP.m 204.74750 : STOP DEPTH
STEP.m   0.12500 : STEP
NULL.   -9999.25 : NULL VALUE
COMP.            : COMPANY
WELL.     WELL-A : 
FLD .            : 
LOC .            : LOCATION
PROV.            : PROVINCE
CNTY.            : COUNTY
STAT.            : STATE
CTRY.            : 
SRVC.            : SERVICE COMPANY
DATE.            : DATE
UWI .            : 
API .            : API NUMBER
~Curve Information -----------------------------------------
MD  .m     : 
TVD .m     : 
GR  .m     : 
LLD .API   : 
RHOB.ohm   : 
DT  .g/cc  : 
VCL .frac  : 
PHIE.frac  : 
~Params ----------------------------------------------------
~Other -----------------------------------------------------
~ASCII -----------------------------------------------------
# ...
  191.24770  191.24770  171.82150   24.64710    2.72500   65.47400    0.86272    0.02418
  191.37270  191.37270  162.34150   25.07820    2.72070   65.67020    0.85183    0.02602
  191.49770  191.49770  152.97240   24.00030    2.71950   66.10820    0.75918    0.02321
  191.62270  191.62270  146.06940   22.83180    2.72210   66.40000    0.69092    0.02100
  191.74770  191.74770  149.14500   23.03430    2.72030   66.40000    0.72133    0.02252
  191.87270  191.87270  144.76090   22.96680    2.71760   66.83850    0.67798    0.02125
  191.99770  191.99770  144.64030   22.77480    2.72290   66.94490    0.67678    0.01810
  192.12270  192.12270  145.59850   22.85570    2.72600   66.93710    0.68626    0.01665
  192.24770  192.24770  146.56180   23.14190    2.72420   66.96190    0.69578    0.01806
  192.37270  192.37270  153.23190   22.84550    2.72930   66.80000    0.76175    0.01758
  192.49770  192.49770  150.66680   21.45300    2.73240   67.29900    0.73638    0.01481
  192.62270  192.62270  150.59860   20.35340    2.73900   67.07390    0.73571    0.01092
  192.74770  192.74770  146.24200   19.53050    2.73850   67.32550    0.69262    0.00958
  192.87270  192.87270  139.80570   19.02310    2.72980   67.71220    0.63888    0.01263
  192.99770  192.99770  135.37260   18.86800    2.71920   67.52240    0.58513    0.01679
  193.12270  193.12270  126.08310   19.07680    2.72310   67.68650    0.49327    0.01103
  193.24770  193.24770  121.20390   19.62340    2.72690   67.17280    0.44502    0.00698
  193.37270  193.37270  112.88890   21.15410    2.73280   65.68050    0.36279    0.00041
  193.49770  193.49770  103.79100   24.02460    2.72970   64.10960    0.27282    0.00000
  193.62270  193.62270   97.23940   27.99670    2.71780   62.98690    0.20803    0.00332
  193.74770  193.74770   95.39700   32.16420    2.71230   62.18320    0.18981    0.00585
  193.87270  193.87270   96.28630   34.45480    2.71800   61.77290    0.19860    0.00285
  193.99770  193.99770  102.96750   33.38290    2.72230   62.30720    0.26467    0.00284
  194.12270  194.12270  109.96930   29.85290    2.72870   64.13260    0.33392    0.00172
  194.24770  194.24770  117.71290   25.63080    2.73420   66.26540    0.41049    0.00140
  194.37270  194.37270  126.17910   22.48820    2.73260   67.62120    0.49422    0.00551
  194.49770  194.49770  127.20560   21.18740    2.71710   68.35960    0.50437    0.01496
  194.62270  194.62270  127.45950   20.79580    2.71100   68.55510    0.50688    0.01862
  194.74770  194.74770  128.06130   20.56740    2.70700   68.48080    0.51283    0.02119
  194.87270  194.87270  128.89560   20.63920    2.71120   68.40000    0.52108    0.01904
  194.99770  194.99770  128.14870   21.08400    2.71930   68.30580    0.51369    0.01403
  195.12270  195.12270  123.27280   21.75640    2.71910   67.99440    0.46548    0.01232
  195.24770  195.24770  118.40920   21.38880    2.72880   67.91230    0.41738    0.00482
  195.37260  195.37260  114.89000   20.66320    2.73150   67.83030    0.38258    0.00192
  195.49760  195.49760  116.67910   19.99370    2.74000   68.26510    0.40027    0.00000
  195.62260  195.62260  120.87260   19.33610    2.74280   68.76730    0.44174    0.00000
  195.74760  195.74760  124.82540   18.69690    2.73160   68.93140    0.48083    0.00559
  195.87260  195.87260  131.17710   18.48750    2.72160   69.09550    0.54364    0.01382
  195.99760  195.99760  131.16410   19.10450    2.71690   68.54130    0.54351    0.01656
  196.12260  196.12260  130.92440   19.58470    2.71720   68.27650    0.54114    0.01630
  196.24760  196.24760  128.80870   19.79300    2.72260   68.46250    0.52022    0.01235
  196.37260  196.37260  127.34980   19.57340    2.72860   69.03220    0.50579    0.00829
  196.49760  196.49760  130.64880   18.77430    2.72820   69.71570    0.53842    0.00976
  196.62260  196.62260  131.81970   17.35990    2.72030   69.87980    0.53941    0.01146
  196.74760  196.74760  130.84980   16.97920    2.72250   69.68410    0.54041    0.01317
  196.87260  196.87260  127.46080   17.09620    2.72320   69.38430    0.50689    0.01149
  196.99760  196.99760  123.09880   17.40210    2.72500   69.09230    0.46376    0.00825
  197.12260  197.12260  120.29140   17.91240    2.72870   68.84610    0.43599    0.00559
  197.24760  197.24760  122.45200   19.12620    2.72780   68.60000    0.45736    0.00692
  197.37260  197.37260  121.96590   20.54140    2.72920   68.27180    0.45255    0.00592
  197.49760  197.49760  119.54660   20.35630    2.72900   68.26400    0.42863    0.00513
  197.62260  197.62260  119.21420   19.78140    2.72610   68.20800    0.42534    0.00670
  197.74760  197.74760  119.94230   19.28570    2.72100   68.10000    0.43254    0.00996
  197.87260  197.87260  119.25470   18.75360    2.71590   68.15050    0.42574    0.01268
  197.99760  197.99760  122.20340   17.50350    2.71540   68.56070    0.45490    0.01408
  198.12260  198.12260  117.56340   17.47650    2.71560   68.22960    0.40902    0.01222
  198.24760  198.24760  115.73440   17.92860    2.72090   67.87560    0.39093    0.00844
  198.37260  198.37260  116.11990   18.62720    2.72600   67.66190    0.39474    0.00560
  198.49760  198.49760  116.71850   19.39280    2.73090   67.55960    0.40066    0.00296
  198.62260  198.62260  116.13460   20.02650    2.74280   67.41120    0.39489    0.00000
  198.74760  198.74760  118.21780   19.27170    2.73930   67.82150    0.41549    0.00000
  198.87260  198.87260  116.97790   18.01920    2.73240   68.42990    0.40323    0.00218
  198.99760  198.99760  117.38570   17.12370    2.72290   68.89300    0.40726    0.00789
  199.12260  199.12260  117.68370   16.67880    2.71770   69.10000    0.41021    0.01104
  199.24760  199.24760  115.38310   16.49800    2.72070   69.03830    0.38745    0.00843
  199.37260  199.37260  115.93630   16.67100    2.71650   68.62810    0.39292    0.01109
  199.49760  199.49760  115.73510   17.30380    2.72050   68.44740    0.39094    0.00885
  199.62260  199.62260  118.88780   17.77090    2.72390   68.40000    0.42211    0.00787
  199.74760  199.74760  119.37400   17.88200    2.72780   68.40000    0.42692    0.00577
  199.87260  199.87260  117.19840   17.76430    2.73370   68.42240    0.40541    0.00150
  199.99760  199.99760  118.69130   17.78950    2.74150   68.49550    0.42017    0.00000
  200.12260  200.12260  113.80640   17.76700    2.73740   68.41360    0.37186    0.00000
  200.24760  200.24760  115.99410   17.74640    2.74450   68.60530    0.39350    0.00000
  200.37260  200.37260  113.32850   18.23950    2.74380   68.14470    0.36714    0.00000
  200.49760  200.49760  108.67580   19.16550    2.73830   67.43730    0.32112    0.00000
  200.62260  200.62260  106.31210   20.17450    2.73440   67.02710    0.29775    0.00000
  200.74760  200.74760  100.95760   20.77890    2.72740   66.61680    0.24480    0.00000
  200.87260  200.87260  106.18750   21.22780    2.72750   66.75710    0.29652    0.00100
  200.99760  200.99760  109.01300   20.78200    2.73650   67.28460    0.32446    0.00000
  201.12260  201.12260  112.30220   19.60170    2.75000   67.85580    0.35699    0.00000
  201.24760  201.24760  116.03190   18.38750    2.75870   68.29870    0.39387    0.00000
  201.37260  201.37260  117.29880   18.05080    2.75290   68.57310    0.40640    0.00000
  201.49760  201.49760  115.06430   18.32110    2.74710   68.24540    0.38430    0.00000
  201.62260  201.62260  113.66360   18.61700    2.73160   68.05870    0.37045    0.00141
  201.74760  201.74760  111.80530   18.99320    2.72660   67.73640    0.35207    0.00363
  201.87260  201.87260  110.53880   19.23010    2.72940   67.77820    0.33955    0.00152
  201.99760  201.99760  109.90830   19.23070    2.73310   68.23280    0.33331    0.00000
  202.12260  202.12260  106.88970   19.27310    2.73320   67.90510    0.30346    0.00000
  202.24760  202.24760  104.16880   19.64090    2.74100   67.81920    0.27655    0.00000
  202.37260  202.37260  104.81160   20.13330    2.74030   67.86280    0.28291    0.00000
