~Version ---------------------------------------------------
VERS.   2.0 : CWLS log ASCII Standard -VERSION 2.0
WRAP.    NO : One line per depth step
DLM . SPACE : Column Data Section Delimiter
~Well ------------------------------------------------------
STRT.m   0.00000 : START DEPTH
STOP.m 204.74750 : STOP DEPTH
STEP.m   0.12500 : STEP
NULL.   -9999.25 : NULL VALUE
COMP.            : COMPANY
WELL.     WELL-A : 
FLD .            : 
LOC .            : LOCATION
PROV.            : PROVINCE
CNTY.            : COUNTY
STAT.            : STATE
CTRY.            : 
SRVC.            : SERVICE COMPANY
DATE.            : DATE
UWI .            : 
API .            : API NUMBER
~Curve Information -----------------------------------------
MD  .m     : 
TVD .m     : 
GR  .m     : 
LLD .API   : 
RHOB.ohm   : 
DT  .g/cc  : 
VCL .frac  : 
PHIE.frac  : 
~Params ----------------------------------------------------
~Other -----------------------------------------------------
~ASCII -----------------------------------------------------
# ...
  123.74850  123.74850  157.42820    6.43340    2.68780   81.47160    0.80324    0.04342
  123.87350  123.87350  155.75870    6.29210    2.68690   81.28520    0.78673    0.04332
  123.99850  123.99850  158.34040    5.98760    2.69800   81.24270    0.81226    0.03780
  124.12350  124.12350  162.52000    5.59950    2.72270   81.78210    0.85360    0.02492
  124.24850  124.24850  170.41840    5.24990    2.74590   83.10000    0.93171    0.01431
  124.37350  124.37350  176.81600    4.92150    2.76430   85.06150    0.99497    0.00595
  124.49850  124.49850  179.92120    4.73330    2.75450   86.07400    0.99238    0.01158
  124.62350  124.62350  183.51500    4.64450    2.73750   87.08750    0.98978    0.02143
  124.74850  124.74850  184.21130    4.61760    2.72030   87.73300    0.98719    0.03191
  124.87350  124.87350  177.66350    4.63360    2.70130   87.17290    0.98459    0.04240
  124.99850  124.99850  175.50390    4.74690    2.68340   86.10620    0.98200    0.05277
  125.12350  125.12350  170.68630    4.99330    2.66670   84.81790    0.93435    0.06073
  125.24850  125.24850  170.25040    5.20550    2.66550   84.06440    0.93004    0.06127
  125.37350  125.37350  171.52620    5.32040    2.67380   83.68620    0.94266    0.05689
  125.49850  125.49850  171.98270    5.32450    2.68250   83.87760    0.94256    0.05180
  125.62350  125.62350  171.50640    5.24950    2.68390   85.40770    0.94247    0.05098
  125.74850  125.74850  167.54710    5.04880    2.69340   85.73590    0.90331    0.04637
  125.87350  125.87350  163.93790    4.96360    2.69460   85.66790    0.86762    0.04188
  125.99850  125.99850  161.90960    5.01900    2.69550   84.92800    0.84756    0.04060
  126.12350  126.12350  160.36980    5.21570    2.69280   83.69050    0.83233    0.04160
  126.24850  126.24850  158.37630    5.52010    2.68560   82.36780    0.81262    0.04506
  126.37350  126.37350  159.49740    5.82750    2.70000   81.46520    0.80507    0.03636
  126.49850  126.49850  156.84970    6.07790    2.71500   80.79100    0.79752    0.02730
  126.62350  126.62350  158.73320    6.15430    2.73100   81.58890    0.81615    0.01865
  126.74850  126.74850  161.25840    6.06060    2.72660   82.42050    0.84112    0.02217
  126.87350  126.87350  163.28410    5.87320    2.70360   82.82120    0.86115    0.03638
  126.99850  126.99850  167.78200    5.72140    2.68830   83.57500    0.90563    0.04701
  127.12350  127.12350  173.26470    5.68650    2.67490   83.08270    0.95985    0.05690
  127.24850  127.24850  170.69090    5.81290    2.67280   81.97600    0.93440    0.05716
  127.37350  127.37350  167.60970    6.14510    2.67580   81.14830    0.90393    0.05425
  127.49850  127.49850  163.90510    6.61420    2.67920   80.15580    0.86729    0.05088
  127.62350  127.62350  158.76530    7.09760    2.68290   78.75720    0.81647    0.04679
  127.74850  127.74850  156.57790    7.44550    2.69800   78.51100    0.79484    0.03714
  127.87350  127.87350  155.08690    7.26790    2.69960   79.36200    0.78009    0.03564
  127.99850  127.99850  154.80260    7.00000    2.70650   79.47940    0.77728    0.03150
  128.12350  128.12350  156.87370    6.73640    2.70950   78.85000    0.79776    0.03052
  128.24850  128.24850  158.09280    6.57660    2.71090   78.34360    0.80982    0.03016
  128.37350  128.37350  152.86890    6.60790    2.72390   78.97820    0.75816    0.02060
  128.49850  128.49850  146.23010    6.72300    2.76020   77.41920    0.69250    0.00000
  128.62350  128.62350  144.32350    6.44470    2.78600   78.68080    0.69406    0.00000
  128.74850  128.74850  146.54470    5.98680    2.78270   80.66450    0.69562    0.00000
  128.87350  128.87350  151.98620    5.48400    2.75840   82.86470    0.74943    0.00010
  128.99850  128.99850  158.16560    5.01790    2.72840   85.04660    0.81054    0.01995
  129.12350  129.12350  159.92910    4.58900    2.70670   86.76970    0.82798    0.03331
  129.24850  129.24850  164.90280    4.42010    2.70280   87.60610    0.87716    0.03745
  129.37340  129.37340  169.26290    4.35300    2.69710   86.92420    0.92028    0.04242
  129.49840  129.49840  172.94980    4.33870    2.69460   87.20190    0.95674    0.04526
  129.62340  129.62340  176.63520    4.34590    2.69760   88.12020    0.99318    0.04489
  129.74840  129.74840  180.03000    4.36160    2.70530   87.83080    0.98046    0.03990
  129.87340  129.87340  174.06110    4.40620    2.71230   87.17440    0.96773    0.03533
  129.99840  129.99840  168.61780    4.56370    2.72260   86.08300    0.91390    0.02726
  130.12340  130.12340  161.55850    4.84320    2.72930   83.67800    0.84409    0.02070
  130.24840  130.24840  154.95810    5.24360    2.72930   81.33940    0.77882    0.01823
  130.37340  130.37340  151.10820    5.73310    2.72340   79.99370    0.74074    0.02023
  130.49840  130.49840  151.10820    6.24020    2.71670   79.10000    0.74074    0.02415
  130.62340  130.62340  149.42560    6.57550    2.71620   78.27150    0.72411    0.02381
  130.74840  130.74840  151.04790    6.49680    2.71480   79.39600    0.74015    0.02600
  130.87340  130.87340  151.89760    6.15410    2.71080   81.03590    0.74855    0.02790
  130.99840  130.99840  154.91790    5.72090    2.70720   82.44610    0.77842    0.03114
  131.12340  131.12340  163.47790    5.36060    2.70780   83.47430    0.86307    0.03399
  131.24840  131.24840  167.17520    5.15580    2.70800   84.78720    0.89963    0.03526
  131.37340  131.37340  171.02230    5.04790    2.70680   85.27440    0.90545    0.03618
  131.49840  131.49840  168.35110    4.97950    2.69660   85.05860    0.91126    0.04237
  131.62340  131.62340  166.33870    4.93840    2.68890   85.26730    0.89136    0.04612
  131.74840  131.74840  168.05310    4.90010    2.68690   86.12600    0.90831    0.04793
  131.87340  131.87340  169.14460    4.83510    2.68160   86.50270    0.91911    0.05144
  131.99840  131.99840  169.20480    5.03950    2.68710   83.88130    0.91970    0.04824
  132.12340  132.12340  162.70590    5.65150    2.68950   81.39040    0.85544    0.04440
  132.24840  132.24840  159.42870    6.39830    2.68760   79.17400    0.83490    0.04474
  132.37340  132.37340  158.55190    7.10590    2.68430   77.96220    0.81436    0.04589
  132.49840  132.49840  156.94310    7.60880    2.68350   78.40220    0.79845    0.04575
  132.62340  132.62340  158.04160    7.62570    2.68690   80.28940    0.80931    0.04418
  132.74840  132.74840  160.00640    6.80350    2.70010   82.17380    0.82874    0.03719
  132.87340  132.87340  163.71510    6.05810    2.72810   83.64610    0.86542    0.02221
  132.99840  132.99840  167.09740    5.67670    2.76400   83.76460    0.89886    0.00248
  133.12340  133.12340  168.22050    5.60320    2.80190   82.95350    0.90997    0.00000
  133.24840  133.24840  166.11780    5.52090    2.83330   82.86860    0.88918    0.00000
  133.37340  133.37340  164.41820    5.45260    2.79420   83.93360    0.87237    0.00045
  133.49840  133.49840  163.95180    5.61100    2.74770   83.68460    0.86776    0.01084
  133.62340  133.62340  160.66450    5.78570    2.71020   83.24360    0.83525    0.03153
  133.74840  133.74840  155.39320    6.00210    2.69160   82.73330    0.78312    0.04044
  133.87340  133.87340  150.81670    6.33720    2.69170   81.93890    0.73786    0.03866
  133.99840  133.99840  150.22780    6.82580    2.69290   80.54620    0.73204    0.03774
  134.12340  134.12340  149.89210    7.28510    2.69150   79.94470    0.72872    0.03843
  134.24840  134.24840  150.35740    7.48400    2.69780   79.73860    0.73332    0.03492
  134.37340  134.37340  150.83400    7.51380    2.69780   79.39600    0.73803    0.03510
  134.49840  134.49840  151.40960    7.45240    2.69320   78.92350    0.74373    0.03619
  134.62340  134.62340  152.66990    7.34900    2.69480   78.79770    0.75619    0.03754
  134.74840  134.74840  153.54580    7.24140    2.68840   79.86270    0.76485    0.04162
  134.87340  134.87340  151.51600    7.13380    2.69510   80.00000    0.74478    0.03694
