~Version ---------------------------------------------------
VERS.   2.0 : CWLS log ASCII Standard -VERSION 2.0
WRAP.    NO : One line per depth step
DLM . SPACE : Column Data Section Delimiter
~Well ------------------------------------------------------
STRT.m   0.00000 : START DEPTH
STOP.m 204.74750 : STOP DEPTH
STEP.m   0.12500 : STEP
NULL.   -9999.25 : NULL VALUE
COMP.            : COMPANY
WELL.     WELL-A : 
FLD .            : 
LOC .            : LOCATION
PROV.            : PROVINCE
CNTY.            : COUNTY
STAT.            : STATE
CTRY.            : 
SRVC.            : SERVICE COMPANY
DATE.            : DATE
UWI .            : 
API .            : API NUMBER
~Curve Information -----------------------------------------
MD  .m     : 
TVD .m     : 
GR  .m     : 
LLD .API   : 
RHOB.ohm   : 
DT  .g/cc  : 
VCL .frac  : 
PHIE.frac  : 
~Params ----------------------------------------------------
~Other -----------------------------------------------------
~ASCII -----------------------------------------------------
# ...
   11.24990   11.24990   76.20330    5.00130    1.94160   75.90000    0.00000    0.44936
   11.37490   11.37490   76.20330    5.03600    1.94370   75.90000    0.00000    0.44813
   11.49990   11.49990   76.20330    5.06240    1.94090   75.90000    0.00000    0.44977
   11.62490   11.62490   76.20330    5.25100    1.92290   75.90000    0.00000    0.46029
   11.74990   11.74990   76.20330    5.94830    1.92710   75.90000    0.00000    0.45784
   11.87490   11.87490   76.20330    6.76540    1.91140   75.90000    0.00000    0.45906
   11.99990   11.99990   76.20330    7.50170    1.91170   75.90000    0.00000    0.46029
   12.12490   12.12490   76.20330    8.15170    1.92080   75.90000    0.00000    0.46152
   12.24990   12.24990   76.20330    8.77210    1.91740   75.90000    0.00000    0.46351
   12.37490   12.37490   76.20330    9.00420    1.96690   75.90000    0.00000    0.43456
   12.49990   12.49990   76.20330    8.87850    1.97170   75.90000    0.00000    0.43175
   12.62490   12.62490   76.20330    8.65850    1.98080   75.90000    0.00000    0.42643
   12.74990   12.74990   76.20330    8.45440    1.99360   75.90000    0.00000    0.41895
   12.87490   12.87490   76.20330    8.32870    2.01450   75.90000    0.00000    0.40673
   12.99990   12.99990   76.20330    8.30080    2.06540   75.90000    0.00000    0.37696
   13.12490   13.12490   76.20330    8.29900    2.06830   75.90000    0.00000    0.37526
   13.24990   13.24990   76.20330    8.29590    2.11000   75.90000    0.00000    0.37370
   13.37490   13.37490   76.20330    8.29360    2.10730   75.90000    0.00000    0.37214
   13.49990   13.49990   76.20330    8.29470    2.07630   75.90000    0.00000    0.37058
   13.62490   13.62490   76.20330    8.29820    2.06890   75.90000    0.00000    0.37491
   13.74990   13.74990   76.20330    8.28990    2.06910   75.90000    0.00000    0.37480
   13.87490   13.87490   76.20330    8.29040    2.10310   75.90000    0.00000    0.37000
   13.99980   13.99980   76.20330    8.29470    2.08550   75.90000    0.00000    0.36520
   14.12480   14.12480   76.20330    8.31520    2.05590   75.90000    0.00000    0.38251
   14.24980   14.24980   76.20330    8.34230    2.04520   75.90000    0.00000    0.38877
   14.37480   14.37480   76.20330    8.34230    2.05150   75.90000    0.00000    0.38509
   14.49980   14.49980   76.20330    8.34230    2.05740   75.90000    0.00000    0.38164
   14.62480   14.62480   76.20330    8.34230    2.07150   75.90000    0.00000    0.37339
   14.74980   14.74980   76.20330    8.34230    2.07220   75.90000    0.00000    0.37298
   14.87480   14.87480   76.20330    8.34230    2.06420   75.90000    0.00000    0.37766
   14.99980   14.99980   76.20330    8.34230    2.05550   75.90000    0.00000    0.38275
   15.12480   15.12480   76.20330    8.34230    2.03210   75.90000    0.00000    0.39643
   15.24980   15.24980   76.20330    8.34230    2.06220   75.90000    0.00000    0.37883
   15.37480   15.37480   76.20330    8.34230    2.06220   75.90000    0.00000    0.37883
   15.49980   15.49980   76.20330    8.34230    2.11750   75.90000    0.00000    0.34224
   15.62480   15.62480   76.20330    8.34230    2.26970   75.90000    0.00000    0.30564
   15.74980   15.74980   76.04360    7.89630    2.47670   76.78810    0.04751    0.27085
   15.87480   15.87480   73.63830    1.18010    2.37640   90.16250    0.09501    0.23605
   15.99980   15.99980   80.33640    0.29020    2.26170   79.05480    0.14252    0.20126
   16.12480   16.12480   95.41920    0.49960    2.24080   74.43520    0.19003    0.16646
   16.24980   16.24980  111.72590    0.65770    2.31880   76.27280    0.35129    0.13598
   16.37480   16.37480  123.45820    0.97230    2.46200   77.97100    0.46731    0.10378
   16.49980   16.49980  132.58980    2.46090    2.62540   78.87360    0.55761    0.07060
   16.62480   16.62480  130.76830 79647.94530    2.62690   80.57260    0.53960    0.06904
   16.74980   16.74980  128.59330 100000.00000    2.58660   80.75320    0.51809    0.06674
   16.87480   16.87480  127.33300 56332.87110    2.56080   79.90110    0.50563    0.06477
   16.99980   16.99980  126.21570   24.74730    2.57840   78.84620    0.48872    0.06264
   17.12480   17.12480  123.91290   10.91110    2.63710   78.26920    0.47181    0.06051
   17.24980   17.24980  124.27740    9.23530    2.66490   76.87440    0.47541    0.04439
   17.37480   17.37480  117.05210    9.98260    2.68230   74.68970    0.40396    0.03151
   17.49980   17.49980  110.14970   11.73430    2.69430   72.12590    0.33570    0.02190
   17.62480   17.62480  103.44090   13.67820    2.70320   69.59930    0.26936    0.01418
   17.74980   17.74980   96.92370   15.21150    2.70810   67.63990    0.20491    0.00888
   17.87480   17.87480   93.63610   15.97730    2.70400   66.90000    0.17240    0.01004
   17.99980   17.99980   92.85620   16.18260    2.70380   66.57240    0.16468    0.00987
   18.12480   18.12480   92.67250   15.45140    2.68780   66.94760    0.16287    0.01915
   18.24980   18.24980   94.37500   14.17680    2.67970   67.88880    0.17970    0.02453
   18.37480   18.37480   98.58660   12.72660    2.68080   69.28560    0.22135    0.02546
   18.49980   18.49980  105.73680   11.34600    2.68230   71.03850    0.29206    0.02727
   18.62480   18.62480  117.81990    9.87250    2.69020   73.00770    0.41155    0.02717
   18.74980   18.74980  127.21020    8.53700    2.68520   74.90290    0.50441    0.03362
   18.87480   18.87480  132.57740    7.49620    2.67810   76.50800    0.55749    0.03978
   18.99980   18.99980  133.33340    6.77270    2.67250   78.24950    0.56497    0.04334
   19.12480   19.12480  131.07890    6.32110    2.66820   79.90010    0.54267    0.04501
   19.24980   19.24980  129.86480    6.04680    2.66170   80.31870    0.53067    0.04821
   19.37480   19.37480  128.69570    6.12060    2.65570   81.05720    0.51910    0.05143
   19.49980   19.49980  129.25310    6.32570    2.65730   79.54800    0.52462    0.05070
   19.62480   19.62480  127.36630    6.59060    2.67240   78.84420    0.50596    0.04116
   19.74980   19.74980  123.90060    6.90430    2.69170   78.45770    0.47168    0.02858
   19.87480   19.87480  121.05480    7.27030    2.70450   76.95640    0.44354    0.02002
   19.99980   19.99980  117.40910    7.65410    2.72140   75.31540    0.40749    0.00878
   20.12480   20.12480  113.32780    8.00810    2.71900   74.51350    0.36713    0.00865
   20.24980   20.24980  109.97250    8.49550    2.71620   73.36820    0.33395    0.00903
   20.37480   20.37480  104.94590    8.98310    2.71270   71.85530    0.28424    0.00919
   20.49980   20.49980   99.25610    9.41790    2.70930   70.53320    0.22797    0.00905
   20.62480   20.62480   97.28720    9.88840    2.70990   70.22210    0.20850    0.00796
   20.74980   20.74980   94.87920   10.78940    2.71130   68.74520    0.18469    0.00624
   20.87480   20.87480   95.42110   11.35900    2.70990   68.29500    0.19005    0.00726
   20.99980   20.99980   96.97570   10.99400    2.70710   67.74710    0.20542    0.00948
   21.12480   21.12480  100.04270    9.94670    2.70050   67.78560    0.23575    0.01449
   21.24980   21.24980  105.71760    8.70690    2.69050   69.00190    0.29187    0.02246
   21.37480   21.37480  114.66730    7.53180    2.68900   70.15060    0.38038    0.02669
   21.49980   21.49980  119.58030    6.56900    2.68490   73.17920    0.42896    0.03093
   21.62480   21.62480  122.33710    6.07380    2.68710   74.96670    0.45622    0.03068
   21.74980   21.74980  121.27250    5.98320    2.68770   75.68490    0.44570    0.02993
   21.87480   21.87480  118.82180    6.11830    2.68330   75.89810    0.42146    0.03159
   21.99980   21.99980  119.93780    6.24150    2.67630   76.17370    0.43250    0.03610
   22.12480   22.12480  121.15310    6.19010    2.66890   75.84550    0.44451    0.04088
   22.24970   22.24970  122.00230    6.03940    2.66790   76.43500    0.45291    0.04178
   22.37470   22.37470  123.02430    5.79320    2.67470   77.85640    0.46302    0.03819
