~Version ---------------------------------------------------
VERS.   2.0 : CWLS log ASCII Standard -VERSION 2.0
WRAP.    NO : One line per depth step
DLM . SPACE : Column Data Section Delimiter
~Well ------------------------------------------------------
STRT.m   0.00000 : START DEPTH
STOP.m 204.74750 : STOP DEPTH
STEP.m   0.12500 : STEP
NULL.   -9999.25 : NULL VALUE
COMP.            : COMPANY
WELL.     WELL-A : 
FLD .            : 
LOC .            : LOCATION
PROV.            : PROVINCE
CNTY.            : COUNTY
STAT.            : STATE
CTRY.            : 
SRVC.            : SERVICE COMPANY
DATE.            : DATE
UWI .            : 
API .            : API NUMBER
~Curve Information -----------------------------------------
MD  .m     : 
TVD .m     : 
GR  .m     : 
LLD .API   : 
RHOB.ohm   : 
DT  .g/cc  : 
VCL .frac  : 
PHIE.frac  : 
~Params ----------------------------------------------------
~Other -----------------------------------------------------
~ASCII -----------------------------------------------------
# ...
  101.24880  101.24880  118.38360   13.29890    2.67820   72.94710    0.41713    0.03440
  101.37380  101.37380  111.59350   14.25340    2.64790   73.43940    0.34998    0.04958
  101.49880  101.49880  112.88990   14.27820    2.62760   73.42810    0.36280    0.06194
  101.62380  101.62380  118.42890   13.25420    2.62120   73.93920    0.41757    0.06775
  101.74880  101.74880  129.09490   11.65370    2.62840   74.79490    0.52305    0.06754
  101.87380  101.87380  143.51250   10.00500    2.64290   75.51790    0.66563    0.06625
  101.99880  101.99880  155.19740    8.64170    2.65130   75.60000    0.78118    0.06393
  102.12380  102.12380  160.98770    7.94270    2.64850   77.48720    0.83844    0.06774
  102.24880  102.24880  159.95100    7.62480    2.65250   77.77200    0.82819    0.06501
  102.37380  102.37380  157.70140    7.55080    2.65260   77.51600    0.80883    0.06422
  102.49880  102.49880  156.03600    7.67630    2.65010   77.18780    0.78948    0.06495
  102.62380  102.62380  154.37340    7.98180    2.65120   76.88990    0.77303    0.06368
  102.74880  102.74880  152.22740    8.30920    2.65000   76.80790    0.75181    0.06358
  102.87380  102.87380  146.65360    8.52750    2.67200   76.80000    0.69669    0.04862
  102.99880  102.99880  141.57740    8.82770    2.69000   76.68780    0.64649    0.03619
  103.12380  103.12380  140.36810    9.07100    2.70010   76.40930    0.63453    0.02983
  103.24880  103.24880  143.97770    9.15340    2.70230   76.05960    0.67023    0.02990
  103.37380  103.37380  150.11700    9.09550    2.69730   75.90220    0.73094    0.03513
  103.49880  103.49880  156.30440    9.02930    2.69170   75.98430    0.79213    0.04072
  103.62380  103.62380  160.04020    8.87450    2.68830   76.59620    0.82907    0.04411
  103.74880  103.74880  159.38780    8.69670    2.68290   77.04470    0.80939    0.04652
  103.87380  103.87380  156.05840    8.55310    2.67890   77.23030    0.78970    0.04811
  103.99880  103.99880  152.73640    8.49740    2.68020   77.23830    0.75685    0.04611
  104.12380  104.12380  149.53020    8.59430    2.68280   76.82800    0.77016    0.04509
  104.24880  104.24880  155.42950    8.66770    2.67620   76.64740    0.78348    0.04946
  104.37380  104.37380  156.11850    8.68910    2.67790   76.65830    0.79029    0.04872
  104.49880  104.49880  154.63040    8.72600    2.67880   76.45770    0.77558    0.04764
  104.62370  104.62370  152.25160    8.78220    2.67720   76.25700    0.75205    0.04768
  104.74870  104.74870  147.38350    8.79260    2.68060   76.79550    0.70391    0.04387
  104.87370  104.87370  150.50850    8.84140    2.67310   76.71360    0.73481    0.04942
  104.99870  104.99870  145.36590    9.21160    2.66550   76.63160    0.68396    0.05194
  105.12370  105.12370  138.07890    9.78920    2.66290   75.79230    0.61190    0.04828
  105.24870  105.24870  130.63310   10.46630    2.66870   74.64210    0.53826    0.04455
  105.37370  105.37370  125.01920   11.14320    2.68080   73.71040    0.48275    0.03537
  105.49870  105.49870  126.80300   11.74880    2.68740   72.64370    0.49255    0.03188
  105.62370  105.62370  127.00140   12.25580    2.68720   72.52140    0.50235    0.03237
  105.74870  105.74870  126.28200   12.00700    2.68420   72.56060    0.49548    0.03386
  105.87370  105.87370  125.61220   11.47550    2.68540   72.85580    0.48861    0.03290
  105.99870  105.99870  126.76410   11.00820    2.68490   73.59490    0.53576    0.03498
  106.12370  106.12370  131.70400   10.70970    2.67020   74.84030    0.58291    0.04139
  106.24870  106.24870  140.08320   10.24540    2.66460   75.33180    0.63005    0.04779
  106.37370  106.37370  144.68280    9.76800    2.65960   75.75340    0.67720    0.05420
  106.49870  106.49870  148.09070    9.27630    2.65330   76.58540    0.71090    0.06010
  106.62370  106.62370  151.06910    8.87260    2.64650   77.20000    0.74036    0.06519
  106.74870  106.74870  154.11190    8.58670    2.64130   77.41840    0.77045    0.06600
  106.87370  106.87370  157.95900    8.25820    2.64170   78.48340    0.80849    0.06711
  106.99870  106.99870  158.31210    8.01570    2.64820   78.98460    0.81198    0.06691
  107.12370  107.12370  153.53430    8.03890    2.65280   78.09490    0.76474    0.06243
  107.24870  107.24870  149.98300    8.18920    2.65890   77.36540    0.72962    0.05744
  107.37370  107.37370  147.96730    8.38360    2.66530   77.06540    0.70968    0.05303
  107.49870  107.49870  144.56530    8.62290    2.66850   76.57460    0.68354    0.05017
  107.62370  107.62370  142.68000    9.13070    2.66980   75.42770    0.65740    0.04909
  107.74870  107.74870  137.43070    9.74180    2.66880   75.15420    0.60549    0.04704
  107.87370  107.87370  131.89880   10.51950    2.66610   73.61590    0.56271    0.04700
  107.99870  107.99870  128.77950   11.06750    2.66740   72.47400    0.51993    0.04462
  108.12370  108.12370  129.58450   11.10060    2.67310   72.77140    0.52789    0.04158
  108.24870  108.24870  133.88140   10.66560    2.67500   73.50000    0.57039    0.04208
  108.37370  108.37370  141.14350   10.34710    2.68010   73.16790    0.64220    0.04182
  108.49870  108.49870  144.62310    9.94130    2.68380   74.40130    0.67661    0.04096
  108.62370  108.62370  142.82570    9.63990    2.68750   74.67600    0.65884    0.03812
  108.74870  108.74870  139.27270    9.33380    2.69190   74.66590    0.62370    0.03422
  108.87370  108.87370  139.14230    8.80890    2.69740   75.94380    0.62241    0.03095
  108.99870  108.99870  144.21180    8.03980    2.70350   77.01040    0.67255    0.02929
  109.12370  109.12370  146.09430    7.64690    2.72270   76.87450    0.69116    0.01876
  109.24870  109.24870  144.19290    7.22560    2.74830   76.74280    0.67236    0.00308
  109.37370  109.37370  142.02100    6.85400    2.75840   77.28890    0.65088    0.00000
  109.49870  109.49870  143.56410    6.57690    2.74490   78.41280    0.66614    0.00483
  109.62370  109.62370  151.76500    6.32860    2.71950   79.29930    0.74724    0.02276
  109.74870  109.74870  158.46310    6.06560    2.70090   81.84290    0.81348    0.03615
  109.87370  109.87370  160.19020    5.86770    2.70070   82.63650    0.83056    0.03691
  109.99870  109.99870  157.21400    5.78400    2.69740   82.60260    0.80113    0.03773
  110.12370  110.12370  154.02940    5.82330    2.68900   82.46270    0.76963    0.04145
  110.24870  110.24870  155.12010    5.93800    2.68170   82.62660    0.78042    0.04612
  110.37370  110.37370  160.09620    5.96900    2.68330   82.79070    0.82963    0.04705
  110.49870  110.49870  166.06650    5.83670    2.69200   83.49660    0.88867    0.04420
  110.62370  110.62370  166.55660    5.70280    2.71330   83.16490    0.89352    0.03193
  110.74870  110.74870  162.01530    5.53640    2.73150   83.04860    0.84861    0.01958
  110.87370  110.87370  156.07360    5.34520    2.73410   83.68080    0.78985    0.01584
  110.99870  110.99870  154.06460    5.18430    2.71740   84.66540    0.76998    0.02485
  111.12370  111.12370  155.96910    5.09390    2.70170   85.65000    0.78881    0.03475
  111.24870  111.24870  162.04820    4.97060    2.68980   86.42600    0.84893    0.04398
  111.37370  111.37370  165.01050    4.93410    2.68320   86.95800    0.87823    0.04895
  111.49870  111.49870  165.46160    4.98390    2.67610   86.93120    0.88269    0.05327
  111.62370  111.62370  164.37350    5.09760    2.66680   86.40000    0.87193    0.05830
  111.74870  111.74870  158.11120    5.29020    2.66750   86.40000    0.81000    0.05555
  111.87370  111.87370  159.27140    5.50530    2.66790   85.12560    0.81427    0.05548
  111.99870  111.99870  158.97510    5.76370    2.67250   83.62770    0.81854    0.05295
  112.12370  112.12370  159.96670    6.10610    2.67530   82.28850    0.82835    0.05168
  112.24870  112.24870  159.92300    6.53560    2.68250   81.11540    0.82792    0.04746
  112.37370  112.37370  154.32910    7.00810    2.70370   79.93080    0.77260    0.03296
