~Version ---------------------------------------------------
VERS.   2.0 : CWLS log ASCII Standard -VERSION 2.0
WRAP.    NO : One line per depth step
DLM . SPACE : Column Data Section Delimiter
~Well ------------------------------------------------------
STRT.m   0.00000 : START DEPTH
STOP.m 204.74750 : STOP DEPTH
STEP.m   0.12500 : STEP
NULL.   -9999.25 : NULL VALUE
COMP.            : COMPANY
WELL.     WELL-A : 
FLD .            : 
LOC .            : LOCATION
PROV.            : PROVINCE
CNTY.            : COUNTY
STAT.            : STATE
CTRY.            : 
SRVC.            : SERVICE COMPANY
DATE.            : DATE
UWI .            : 
API .            : API NUMBER
~Curve Information -----------------------------------------
MD  .m     : 
TVD .m     : 
GR  .m     : 
LLD .API   : 
RHOB.ohm   : 
DT  .g/cc  : 
VCL .frac  : 
PHIE.frac  : 
~Params ----------------------------------------------------
~Other -----------------------------------------------------
~ASCII -----------------------------------------------------
# ...
  157.49810  157.49810  119.10230   24.66280    2.74240   65.70380    0.42423    0.00000
  157.62310  157.62310  123.16510   23.42530    2.74950   66.20000    0.46441    0.00000
  157.74810  157.74810  120.59530   22.03980    2.76280   66.85130    0.43900    0.00000
  157.87310  157.87310  120.28190   20.28790    2.76890   67.57020    0.43590    0.00000
  157.99810  157.99810  120.62400   18.41900    2.76480   67.94540    0.43928    0.00000
  158.12310  158.12310  121.94380   16.83620    2.75580   68.24660    0.45233    0.00000
  158.24810  158.24810  125.53250   15.87400    2.74990   68.94730    0.48782    0.00000
  158.37310  158.37310  131.43000   15.13710    2.74290   69.35750    0.54614    0.00146
  158.49810  158.49810  131.43790   14.53460    2.74340   69.10620    0.54622    0.00117
  158.62310  158.62310  131.79020   14.95530    2.74070   68.66730    0.52665    0.00200
  158.74810  158.74810  127.47970   16.98780    2.74040   67.65000    0.50708    0.00144
  158.87310  158.87310  117.43360   20.43460    2.74370   65.73530    0.40773    0.00000
  158.99810  158.99810  108.75700   24.09700    2.74280   62.98880    0.32193    0.00000
  159.12310  159.12310  106.55500   26.69740    2.74540   62.41540    0.30015    0.00000
  159.24810  159.24810  112.94790   28.58830    2.74950   62.88990    0.36337    0.00000
  159.37310  159.37310  120.32310   27.11130    2.75100   63.86630    0.43631    0.00000
  159.49810  159.49810  125.41550   23.51380    2.74720   65.34120    0.48667    0.00000
  159.62310  159.62310  127.97040   20.55560    2.73810   67.11170    0.51193    0.00297
  159.74810  159.74810  130.43410   19.44370    2.73040   67.19370    0.53952    0.00852
  159.87310  159.87310  133.55070   18.79450    2.73610   67.20000    0.56712    0.00623
  159.99810  159.99810  134.39300   18.47040    2.73670   67.43080    0.57545    0.00619
  160.12310  160.12310  133.77080   18.05270    2.73560   67.91800    0.56929    0.00660
  160.24810  160.24810  133.17850   17.57070    2.73490   68.26920    0.56344    0.00679
  160.37310  160.37310  133.97110   17.58640    2.73230   67.81150    0.57127    0.00861
  160.49810  160.49810  132.43140   18.47490    2.74080   68.05730    0.55605    0.00306
  160.62310  160.62310  132.80370   18.16420    2.74560   67.89660    0.55973    0.00039
  160.74810  160.74810  134.48560   16.94760    2.74510   68.24860    0.57636    0.00131
  160.87310  160.87310  136.67570   15.68910    2.74590   69.08270    0.59802    0.00167
  160.99810  160.99810  138.48770   15.00000    2.75250   69.94180    0.61594    0.00000
  161.12310  161.12310  139.05390   14.16780    2.75610   70.18750    0.62154    0.00000
  161.24810  161.24810  138.75960   13.20010    2.76160   70.20000    0.61863    0.00000
  161.37310  161.37310  136.74630   13.22560    2.76030   69.78040    0.59872    0.00000
  161.49810  161.49810  132.27840   13.70770    2.76040   68.74420    0.55453    0.00000
  161.62310  161.62310  126.30950   14.04380    2.76550   67.65190    0.50109    0.00000
  161.74810  161.74810  121.46920   13.97910    2.77420   67.40880    0.44764    0.00000
  161.87310  161.87310  123.11590   15.81880    2.78670   66.18000    0.46392    0.00000
  161.99810  161.99810  129.04380   17.02880    2.78260   65.43970    0.52255    0.00000
  162.12310  162.12310  137.85680   17.68960    2.77110   65.40830    0.60970    0.00000
  162.24810  162.24810  147.38050   18.62820    2.75940   65.66830    0.70388    0.00000
  162.37300  162.37300  156.25500   19.90250    2.75280   65.84850    0.79164    0.00497
  162.49800  162.49800  165.49430   19.50580    2.75290   66.09420    0.88301    0.00837
  162.62300  162.62300  170.90220   19.27180    2.75400   65.85960    0.92870    0.00946
  162.74800  162.74800  174.73450   19.73170    2.74200   65.73780    0.97439    0.01821
  162.87300  162.87300  175.98320   20.52310    2.72980   65.43460    0.98674    0.02581
  162.99800  162.99800  174.86510   21.48390    2.72420   65.20500    0.97568    0.02867
  163.12300  163.12300  172.38840   22.56050    2.72530   65.46730    0.94387    0.02682
  163.24800  163.24800  168.43220   23.25880    2.72760   65.13910    0.91206    0.02427
  163.37300  163.37300  163.80510   23.05420    2.73210   65.02770    0.86631    0.01990
  163.49800  163.49800  158.33740   23.25390    2.72770   65.10870    0.81224    0.02043
  163.62300  163.62300  151.54550   23.78070    2.72350   65.20000    0.74507    0.02034
  163.74800  163.74800  144.15970   24.14060    2.72300   65.18160    0.67203    0.01786
  163.87300  163.87300  138.82490   23.67220    2.71400   65.10000    0.61927    0.01943
  163.99800  163.99800  134.96290   24.32970    2.71080   64.52340    0.58108    0.02155
  164.12300  164.12300  136.23750   24.48070    2.71570   64.59330    0.59369    0.01916
  164.24800  164.24800  136.77450   24.05720    2.72410   64.74650    0.59900    0.01445
  164.37300  164.37300  136.27820   23.35920    2.73280   65.14180    0.59409    0.00918
  164.49800  164.49800  136.71270   22.73470    2.73960   66.01040    0.59839    0.00537
  164.62300  164.62300  135.75530   21.84700    2.74210   66.09250    0.58892    0.00354
  164.74800  164.74800  134.52590   19.81630    2.73580   66.47260    0.57676    0.00677
  164.87300  164.87300  132.68120   19.15990    2.73680   66.54340    0.55852    0.00549
  164.99800  164.99800  129.72200   19.50060    2.73820   66.46140    0.52925    0.00356
  165.12300  165.12300  127.29110   20.17630    2.73840   66.31790    0.50521    0.00254
  165.24800  165.24800  129.25130   20.80340    2.74590   65.98200    0.52460    0.00000
  165.37300  165.37300  129.35770   22.84360    2.75140   65.40770    0.52565    0.00000
  165.49800  165.49800  130.47590   24.31220    2.75060   65.56670    0.53308    0.00000
  165.62300  165.62300  130.85990   24.28380    2.74440   65.74870    0.54051    0.00037
  165.74800  165.74800  130.20820   23.04520    2.73860   65.95360    0.53406    0.00351
  165.87300  165.87300  129.52410   21.30220    2.73950   66.40130    0.52730    0.00273
  165.99800  165.99800  132.07600   19.31670    2.74920   67.05770    0.51697    0.00000
  166.12300  166.12300  127.43640   18.68230    2.76270   66.86970    0.50665    0.00000
  166.24800  166.24800  128.10950   18.40300    2.76520   66.91760    0.51331    0.00000
  166.37300  166.37300  130.82820   18.16790    2.76070   66.95920    0.54019    0.00000
  166.49800  166.49800  134.14760   18.16390    2.75610   66.83170    0.57302    0.00000
  166.62300  166.62300  139.71660   18.88030    2.75710   66.61920    0.62809    0.00000
  166.74800  166.74800  145.78400   18.99990    2.74890   66.94740    0.68809    0.00333
  166.87300  166.87300  149.68810   18.33350    2.75020   67.20670    0.72937    0.00413
  166.99800  166.99800  154.13110   18.19190    2.74850   67.19820    0.77064    0.00669
  167.12300  167.12300  158.04830   18.70270    2.74830   67.03430    0.80938    0.00827
  167.24800  167.24800  159.73730   19.49110    2.75170   66.78080    0.82608    0.00692
  167.37300  167.37300  158.85120   19.90550    2.74170   66.12440    0.81732    0.01243
  167.49800  167.49800  156.49110   20.21610    2.73050   65.94200    0.79398    0.01810
  167.62300  167.62300  151.34950   20.51160    2.72150   65.77790    0.74313    0.02144
  167.74800  167.74800  147.44200   20.74080    2.72260   65.70000    0.70449    0.01933
  167.87300  167.87300  144.83600   21.06740    2.73080   65.75000    0.67872    0.01356
  167.99800  167.99800  140.77530   21.75930    2.73380   65.87890    0.63856    0.01028
  168.12300  168.12300  137.25950   22.60110    2.71770   65.63270    0.60379    0.01838
  168.24800  168.24800  137.57490   23.11610    2.70510   65.45770    0.60691    0.02586
  168.37300  168.37300  141.44370   23.37010    2.69960   65.40000    0.64517    0.03053
  168.49800  168.49800  146.14570   23.43810    2.70240   65.40000    0.69167    0.03066
  168.62300  168.62300  148.62300   23.40200    2.70940   65.34850    0.69385    0.02664
