~Version ---------------------------------------------------
VERS.   2.0 : CWLS log ASCII Standard -VERSION 2.0
WRAP.    NO : One line per depth step
DLM . SPACE : Column Data Section Delimiter
~Well ------------------------------------------------------
STRT.m   0.00000 : START DEPTH
STOP.m 204.74750 : STOP DEPTH
STEP.m   0.12500 : STEP
NULL.   -9999.25 : NULL VALUE
COMP.            : COMPANY
WELL.     WELL-A : 
FLD .            : 
LOC .            : LOCATION
PROV.            : PROVINCE
CNTY.            : COUNTY
STAT.            : STATE
CTRY.            : 
SRVC.            : SERVICE COMPANY
DATE.            : DATE
UWI .            : 
API .            : API NUMBER
~Curve Information -----------------------------------------
MD  .m     : 
TVD .m     : 
GR  .m     : 
LLD .API   : 
RHOB.ohm   : 
DT  .g/cc  : 
VCL .frac  : 
PHIE.frac  : 
~Params ----------------------------------------------------
~Other -----------------------------------------------------
~ASCII -----------------------------------------------------
# ...
  112.49870  112.49870  151.39740    7.34520    2.71000   79.19230    0.74360    0.02818
  112.62370  112.62370  144.97750    7.90700    2.72530   77.44870    0.68012    0.01683
  112.74870  112.74870  142.93220    8.21360    2.73740   76.80000    0.65989    0.00898
  112.87360  112.87360  143.50620    7.99320    2.74300   77.58620    0.66557    0.00592
  112.99860  112.99860  145.79370    7.28260    2.73750   79.26680    0.68819    0.01000
  113.12360  113.12360  153.97540    6.56260    2.71270   80.50000    0.76910    0.02757
  113.24860  113.24860  158.85010    5.96920    2.69820   82.54730    0.81731    0.03787
  113.37360  113.37360  161.50880    5.52540    2.68590   83.51150    0.84360    0.04606
  113.49860  113.49860  163.36580    5.31590    2.67670   83.84590    0.86196    0.05214
  113.62360  113.62360  163.90940    5.26740    2.66780   83.81630    0.86734    0.05755
  113.74860  113.74860  162.69170    5.24540    2.65690   83.79870    0.85530    0.06346
  113.87360  113.87360  165.31330    5.26090    2.65660   85.43980    0.86448    0.06399
  113.99860  113.99860  164.54910    5.31020    2.65850   84.63750    0.87366    0.06284
  114.12360  114.12360  164.00520    5.40660    2.66090   84.07600    0.86828    0.06115
  114.24860  114.24860  162.38900    5.52870    2.66360   83.33030    0.85230    0.05905
  114.37360  114.37360  158.77220    5.67990    2.66680   82.11950    0.81653    0.05621
  114.49860  114.49860  153.77170    5.91060    2.67000   80.94170    0.76708    0.05296
  114.62360  114.62360  148.07900    6.49530    2.67150   78.64420    0.71079    0.04945
  114.74860  114.74860  138.03960    7.41480    2.68300   76.61410    0.61151    0.03896
  114.87360  114.87360  128.32450    8.67830    2.70190   73.44420    0.51543    0.02427
  114.99860  114.99860  122.24620   10.04080    2.71590   70.71920    0.45532    0.01380
  115.12360  115.12360  122.78970   11.06290    2.71410   70.56790    0.46070    0.01623
  115.24860  115.24860  134.90940   10.99410    2.70830   72.37310    0.58055    0.02299
  115.37360  115.37360  143.88270   10.10890    2.69190   74.48330    0.66929    0.03595
  115.49860  115.49860  150.03040    8.92330    2.68470   76.73070    0.73009    0.04246
  115.62360  115.62360  151.16950    8.00200    2.68770   77.94020    0.74135    0.04113
  115.74860  115.74860  148.98820    7.61720    2.69850   77.86630    0.71978    0.03400
  115.87360  115.87360  149.05640    7.65570    2.71270   77.40000    0.72045    0.02572
  115.99860  115.99860  151.28600    7.55290    2.71900   77.40000    0.74250    0.02287
  116.12360  116.12360  154.56170    7.46530    2.70550   76.85340    0.77490    0.03200
  116.24860  116.24860  156.18200    7.33520    2.69610   77.55610    0.79092    0.03810
  116.37360  116.37360  157.19840    7.11400    2.69080   78.75900    0.80097    0.04158
  116.49860  116.49860  159.08020    6.82070    2.68570   79.31440    0.81932    0.04526
  116.62360  116.62360  160.90910    6.63890    2.68800   79.39650    0.83767    0.04461
  116.74860  116.74860  160.86710    6.86170    2.68280   78.85120    0.83725    0.04763
  116.87360  116.87360  154.88940    7.34980    2.67790   77.73330    0.77814    0.04826
  116.99860  116.99860  147.46180    7.98880    2.67860   76.54790    0.70468    0.04507
  117.12360  117.12360  140.86470    8.69210    2.68490   75.50580    0.63945    0.03891
  117.24860  117.24860  135.58720    9.37110    2.69300   74.60000    0.58726    0.03173
  117.37360  117.37360  139.30120    9.60470    2.70270   74.60000    0.62398    0.02791
  117.49860  117.49860  140.56380    9.51210    2.70220   74.74110    0.63647    0.02868
  117.62360  117.62360  142.59010    9.33550    2.70070   75.22050    0.65651    0.03032
  117.74860  117.74860  144.85490    9.23880    2.69450   75.56540    0.67890    0.03479
  117.87360  117.87360  146.18890    9.32780    2.68330   75.53330    0.69210    0.04184
  117.99860  117.99860  146.08250    9.62000    2.68020   75.69740    0.69104    0.04361
  118.12360  118.12360  146.27190    9.75560    2.67960   74.24850    0.69292    0.04404
  118.24860  118.24860  144.85290    9.79170    2.68270   73.90000    0.67889    0.04169
  118.37360  118.37360  144.90360    9.68790    2.68390   73.90000    0.67939    0.04101
  118.49860  118.49860  147.21420    9.45040    2.68280   74.19440    0.70224    0.04252
  118.62360  118.62360  150.09520    9.11810    2.68290   74.95600    0.73073    0.04354
  118.74860  118.74860  147.15110    8.71800    2.68970   74.54640    0.70161    0.03846
  118.87360  118.87360  150.67720    8.33210    2.69830   75.22760    0.73648    0.03475
  118.99860  118.99860  152.74310    7.97850    2.70290   75.82880    0.75691    0.03284
  119.12360  119.12360  157.02500    7.67100    2.70210   76.13690    0.79926    0.03491
  119.24860  119.24860  163.39110    7.39530    2.69680   76.52150    0.86221    0.04039
  119.37360  119.37360  162.99560    7.10170    2.68950   77.90000    0.85830    0.04451
  119.49860  119.49860  162.51020    6.92450    2.68610   77.98290    0.85350    0.04193
  119.62360  119.62360  158.83820    6.74820    2.69770   78.25960    0.81719    0.03816
  119.74860  119.74860  156.92730    6.54010    2.70630   79.24520    0.79829    0.03241
  119.87360  119.87360  158.03460    6.39480    2.70950   80.08400    0.80924    0.03096
  119.99860  119.99860  160.77540    6.40680    2.70940   79.81100    0.83634    0.03204
  120.12360  120.12360  161.42050    6.41670    2.69250   79.89300    0.84272    0.04217
  120.24860  120.24860  159.26630    6.52100    2.69430   79.15000    0.82758    0.04054
  120.37360  120.37360  158.35770    6.92910    2.69520   78.04420    0.81244    0.03944
  120.49860  120.49860  157.42370    7.46800    2.70060   76.93080    0.80320    0.03593
  120.62360  120.62360  154.69490    8.01720    2.70740   75.88270    0.77621    0.03093
  120.74860  120.74860  148.90340    8.59150    2.70160   74.70000    0.71894    0.03216
  120.87360  120.87360  141.46980    9.19020    2.70320   74.70000    0.64543    0.02843
  120.99860  120.99860  139.11430    9.72570    2.70720   74.02850    0.62214    0.02521
  121.12350  121.12350  140.96690   10.18190    2.71280   73.99520    0.64046    0.02263
  121.24850  121.24850  142.91250   10.36270    2.71800   74.17500    0.65970    0.02032
  121.37350  121.37350  141.82380   10.09870    2.71950   74.04610    0.64893    0.01904
  121.49850  121.49850  141.55980    9.48370    2.71030   74.94720    0.64632    0.02432
  121.62350  121.62350  143.89330    8.64900    2.71130   77.00830    0.66940    0.02461
  121.74850  121.74850  152.01010    7.79200    2.71080   78.25220    0.74966    0.02794
  121.87350  121.87350  160.60260    7.04530    2.71990   79.36150    0.83464    0.02198
  121.99850  121.99850  165.39850    6.49940    2.74220   80.25330    0.85514    0.01358
  122.12350  122.12350  164.75040    6.17350    2.77170   80.15820    0.87565    0.00000
  122.24850  122.24850  162.98650    5.80720    2.80360   81.06070    0.85821    0.00000
  122.37350  122.37350  163.89390    5.60910    2.77850   81.89390    0.86718    0.00000
  122.49850  122.49850  167.00580    5.46470    2.75030   82.76590    0.89796    0.01046
  122.62350  122.62350  169.08150    5.36820    2.73760   83.06550    0.91848    0.01867
  122.74850  122.74850  167.64150    5.35820    2.75130   82.46030    0.90424    0.01011
  122.87350  122.87350  163.92450    5.50710    2.80750   81.72300    0.86749    0.00000
  122.99850  122.99850  164.31340    5.61120    2.82410   82.01790    0.87133    0.00000
  123.12350  123.12350  164.43010    5.74810    2.79960   81.60770    0.87249    0.00000
  123.24850  123.24850  166.74290    5.88040    2.75240   81.69230    0.89536    0.00913
  123.37350  123.37350  169.03410    5.98390    2.71120   82.35360    0.91802    0.03409
  123.49850  123.49850  166.82620    6.07520    2.70090   82.69460    0.89618    0.03928
  123.62350  123.62350  165.34760    6.37050    2.69160   81.54580    0.88156    0.04417
