~Version ---------------------------------------------------
VERS.   2.0 : CWLS log ASCII Standard -VERSION 2.0
WRAP.    NO : One line per depth step
DLM . SPACE : Column Data Section Delimiter
~Well ------------------------------------------------------
STRT.m   0.00000 : START DEPTH
STOP.m 204.74750 : STOP DEPTH
STEP.m   0.12500 : STEP
NULL.   -9999.25 : NULL VALUE
COMP.            : COMPANY
WELL.     WELL-A : 
FLD .            : 
LOC .            : LOCATION
PROV.            : PROVINCE
CNTY.            : COUNTY
STAT.            : STATE
CTRY.            : 
SRVC.            : SERVICE COMPANY
DATE.            : DATE
UWI .            : 
API .            : API NUMBER
~Curve Information -----------------------------------------
MD  .m     : 
TVD .m     : 
GR  .m     : 
LLD .API   : 
RHOB.ohm   : 
DT  .g/cc  : 
VCL .frac  : 
PHIE.frac  : 
~Params ----------------------------------------------------
~Other -----------------------------------------------------
~ASCII -----------------------------------------------------
# ...
  134.99840  134.99840  150.74010    7.09170    2.70290   79.89300    0.73710    0.03208
  135.12340  135.12340  150.48120    7.02010    2.71060   79.83560    0.73454    0.02748
  135.24840  135.24840  149.61260    6.84000    2.71680   79.84720    0.72388    0.02345
  135.37340  135.37340  148.32430    6.56930    2.71600   79.60000    0.71321    0.02352
  135.49840  135.49840  142.18210    6.40390    2.71080   80.00780    0.65247    0.02426
  135.62340  135.62340  136.79080    6.27820    2.70830   80.35450    0.59916    0.02370
  135.74840  135.74840  132.76970    6.26930    2.71700   79.86060    0.55939    0.01710
  135.87340  135.87340  131.17320    6.40610    2.72900   78.87850    0.54360    0.00949
  135.99840  135.99840  132.60240    6.66000    2.73150   78.36730    0.55774    0.00856
  136.12340  136.12340  134.46370    6.87960    2.73190   78.94170    0.57614    0.00903
  136.24840  136.24840  140.11610    7.04280    2.71860   78.33650    0.62007    0.01847
  136.37340  136.37340  143.34710    7.03120    2.71260   78.65770    0.66399    0.02364
  136.49840  136.49840  146.44690    6.94840    2.71290   79.62950    0.70138    0.02488
  136.62340  136.62340  150.90730    6.86900    2.71690   80.75790    0.73876    0.02396
  136.74840  136.74840  155.27730    6.76460    2.72420   81.85290    0.78197    0.02133
  136.87340  136.87340  163.66240    6.39380    2.71570   84.31440    0.86489    0.02944
  136.99840  136.99840  165.85860    6.08960    2.71180   85.39280    0.88661    0.03255
  137.12340  137.12340  167.47560    5.90820    2.70630   84.78960    0.90260    0.03637
  137.24840  137.24840  167.78050    5.78080    2.70140   84.27870    0.90562    0.03935
  137.37340  137.37340  165.32910    5.63480    2.70130   85.16280    0.88138    0.03849
  137.49840  137.49840  166.96280    5.60060    2.70330   83.52180    0.89753    0.03793
  137.62330  137.62330  157.29610    5.75800    2.70400   82.41250    0.80194    0.03390
  137.74830  137.74830  150.75060    6.05860    2.70590   80.47560    0.73721    0.03033
  137.87330  137.87330  141.86540    6.58520    2.70470   77.54000    0.64934    0.02771
  137.99830  137.99830  130.81760    7.44920    2.70260   74.41700    0.54009    0.02479
  138.12330  138.12330  125.37280    8.74300    2.70840   72.67200    0.48624    0.01936
  138.24830  138.24830  120.39320   10.07630    2.71090   72.09760    0.43700    0.01603
  138.37330  138.37330  123.78040   11.24470    2.72230   71.11460    0.47050    0.01064
  138.49830  138.49830  125.10430   12.16780    2.72200   70.64980    0.48359    0.01068
  138.62330  138.62330  125.33510   12.56080    2.72000   70.95380    0.48587    0.01032
  138.74830  138.74830  127.57540   12.14430    2.72460   71.89740    0.50803    0.01071
  138.87330  138.87330  129.74930   10.77660    2.71040   73.04610    0.52952    0.01983
  138.99830  138.99830  141.53380    9.45520    2.71190   75.36800    0.64606    0.02337
  139.12330  139.12330  145.96990    8.66620    2.71080   76.42180    0.68993    0.02568
  139.24830  139.24830  145.93510    8.34500    2.71410   76.23540    0.68959    0.02233
  139.37330  139.37330  141.95570    8.53750    2.72220   75.09180    0.65023    0.01751
  139.49830  139.49830  132.60270    9.41870    2.72840   73.34370    0.55774    0.01038
  139.62330  139.62330  127.72340   11.27600    2.72830   71.29250    0.50949    0.00861
  139.74830  139.74830  122.53200   13.74470    2.73320   69.73370    0.45815    0.00379
  139.87330  139.87330  117.56640   16.16210    2.74580   68.78140    0.40905    0.00000
  139.99830  139.99830  114.53140   18.32760    2.75920   67.74840    0.37903    0.00000
  140.12330  140.12330  114.12370   20.29530    2.76880   66.58170    0.37500    0.00000
  140.24830  140.24830  114.34970   22.39270    2.78070   66.99200    0.37723    0.00000
  140.37330  140.37330  124.33950   22.09260    2.76190   67.48270    0.47603    0.00000
  140.49830  140.49830  131.76490   20.37970    2.75650   68.35000    0.54429    0.00000
  140.62330  140.62330  138.14560   18.42780    2.75130   69.28930    0.61256    0.00000
  140.74830  140.74830  142.71210   16.84770    2.75020   70.16440    0.65771    0.00142
  140.87330  140.87330  143.29820   15.75140    2.76200   70.78960    0.66351    0.00000
  140.99830  140.99830  139.67190   14.94930    2.74100   69.72290    0.62765    0.00566
  141.12330  141.12330  140.94990   13.45370    2.73110   71.99570    0.64029    0.01192
  141.24830  141.24830  142.32920   11.83670    2.72780   72.90000    0.65393    0.01437
  141.37330  141.37330  143.04320   10.63850    2.75000   72.75380    0.66099    0.00166
  141.49830  141.49830  139.75020   10.33200    2.80840   72.27690    0.56970    0.00000
  141.62330  141.62330  124.57990   11.21500    2.89170   71.30000    0.47840    0.00000
  141.74830  141.74830  105.82510   13.51340    2.97450   67.49620    0.29293    0.00000
  141.87330  141.87330   91.65790   19.42090    2.99990   63.92050    0.15283    0.00000
  141.99830  141.99830   83.63790   33.42110    2.97570   61.56060    0.15349    0.00000
  142.12330  142.12330   81.26410   53.41110    2.93090   60.16970    0.15414    0.00000
  142.24830  142.24830   82.27180   73.61760    2.89480   59.03560    0.15480    0.00000
  142.37330  142.37330   82.51480   88.09700    2.84820   58.54330    0.15545    0.00000
  142.49830  142.49830   85.97230   93.22360    2.79230   58.72450    0.15610    0.00000
  142.62330  142.62330   89.49230   67.21100    2.74200   58.57280    0.15676    0.00000
  142.74830  142.74830   92.12100   39.42070    2.70660   58.86540    0.15741    0.00795
  142.87330  142.87330   92.84820   26.89080    2.69100   59.99580    0.16460    0.01735
  142.99830  142.99830   90.43620   21.13930    2.69410   61.52310    0.17969    0.01611
  143.12330  143.12330   84.85450   14.01690    2.69740   62.17950    0.19477    0.01475
  143.24830  143.24830   80.51620   10.10850    2.70280   61.29680    0.20985    0.01216
  143.37330  143.37330   79.74440    6.67940    2.72590   61.48430    0.22493    0.00000
  143.49830  143.49830   80.44380    3.96040    2.75660   61.61230    0.24002    0.00000
  143.62330  143.62330   79.62950    2.86580    2.78190   60.17020    0.25510    0.00000
  143.74830  143.74830   77.44200    2.71400    2.81450   59.34970    0.27018    0.00000
  143.87330  143.87330   76.73320    2.58300    2.82140   59.76180    0.28527    0.00000
  143.99830  143.99830   87.33090    2.74270    2.84560   61.90510    0.30035    0.00000
  144.12330  144.12330  108.10010    3.40220    2.87120   65.02310    0.31543    0.00000
  144.24830  144.24830  133.71200    4.26460    2.87980   68.97690    0.56871    0.00000
  144.37330  144.37330  155.94040    4.67770    2.86050   74.10510    0.78853    0.00000
  144.49830  144.49830  163.52530    5.39710    2.84170   77.38720    0.86354    0.00000
  144.62330  144.62330  158.63600    6.76760    2.82380   76.65580    0.81519    0.00000
  144.74830  144.74830  146.76430    8.53260    2.81460   75.12870    0.69779    0.00000
  144.87330  144.87330  132.92360   10.29890    2.80140   73.03890    0.56091    0.00000
  144.99830  144.99830  121.91790   11.67230    2.77620   70.66950    0.45208    0.00000
  145.12330  145.12330  117.80640   12.38470    2.75660   70.50540    0.41142    0.00000
  145.24830  145.24830  117.77940   13.43380    2.74690   68.75760    0.41115    0.00000
  145.37330  145.37330  123.58790   13.84810    2.74880   70.01410    0.46859    0.00000
  145.49830  145.49830  131.24050   13.34060    2.75690   71.74900    0.54427    0.00000
  145.62330  145.62330  139.69330   12.53270    2.76690   72.90380    0.62786    0.00000
  145.74830  145.74830  149.46830   12.45450    2.77540   73.86620    0.72453    0.00000
  145.87320  145.87320  152.56640   12.31180    2.77280   74.60350    0.75516    0.00000
  145.99820  145.99820  152.21540   12.20710    2.77820   74.84260    0.75169    0.00000
  146.12320  146.12320  150.44930   12.51240    2.77620   74.73990    0.73423    0.00000
