~Version ---------------------------------------------------
VERS.   2.0 : CWLS log ASCII Standard -VERSION 2.0
WRAP.    NO : One line per depth step
DLM . SPACE : Column Data Section Delimiter
~Well ------------------------------------------------------
STRT.m   0.00000 : START DEPTH
STOP.m 204.74750 : STOP DEPTH
STEP.m   0.12500 : STEP
NULL.   -9999.25 : NULL VALUE
COMP.            : COMPANY
WELL.     WELL-A : 
FLD .            : 
LOC .            : LOCATION
PROV.            : PROVINCE
CNTY.            : COUNTY
STAT.            : STATE
CTRY.            : 
SRVC.            : SERVICE COMPANY
DATE.            : DATE
UWI .            : 
API .            : API NUMBER
~Curve Information -----------------------------------------
MD  .m     : 
TVD .m     : 
GR  .m     : 
LLD .API   : 
RHOB.ohm   : 
DT  .g/cc  : 
VCL .frac  : 
PHIE.frac  : 
~Params ----------------------------------------------------
~Other -----------------------------------------------------
~ASCII -----------------------------------------------------
# ...
   78.74910   78.74910  119.05260   17.90470    2.83240   73.01860    0.42374    0.00000
   78.87410   78.87410  115.98310   16.64260    2.83490   72.03060    0.39339    0.00000
   78.99910   78.99910  120.00340   14.01100    2.80050   72.45710    0.43315    0.00000
   79.12410   79.12410  125.21210   12.31370    2.76080   73.03060    0.48465    0.00000
   79.24910   79.24910  130.55900   11.06400    2.71850   73.89330    0.53753    0.01540
   79.37410   79.37410  131.92080   10.49790    2.70100   74.14580    0.55043    0.02612
   79.49910   79.49910  133.16750   10.27690    2.69890   73.62920    0.56333    0.02784
   79.62410   79.62410  136.90680   10.01680    2.70030   72.78170    0.60030    0.02842
   79.74910   79.74910  140.74190    9.51110    2.70280   72.70000    0.63823    0.02840
   79.87410   79.87410  139.05630    9.13540    2.71190   73.19330    0.62156    0.02244
   79.99900   79.99900  134.48730    9.22320    2.73030   74.13540    0.57638    0.00997
   80.12400   80.12400  131.22220    9.35880    2.74490   74.41470    0.54409    0.00021
   80.24900   80.24900  130.25680    9.36750    2.75280   74.39860    0.53454    0.00000
   80.37400   80.37400  131.22850    9.21370    2.75450   74.97280    0.54415    0.00000
   80.49900   80.49900  136.70930    8.78900    2.73820   75.54620    0.59835    0.00618
   80.62400   80.62400  142.45400    7.88510    2.73170   75.15380    0.65516    0.01214
   80.74900   80.74900  145.92870    7.15110    2.72520   75.90260    0.68952    0.01724
   80.87400   80.87400  148.83650    6.74360    2.71370   76.75390    0.71828    0.02506
   80.99900   80.99900  150.70070    6.74780    2.70100   77.00000    0.73671    0.03318
   81.12400   81.12400  147.83230    7.22280    2.70020   76.99520    0.70835    0.03257
   81.24900   81.24900  145.63400    7.92790    2.70830   76.83110    0.68661    0.02701
   81.37400   81.37400  138.36670    8.55920    2.72830   75.46990    0.61474    0.01259
   81.49900   81.49900  132.35110    9.29110    2.73350   74.84850    0.55525    0.00730
   81.62400   81.62400  128.64140    9.81290    2.72410   74.90000    0.51857    0.01141
   81.74900   81.74900  126.99850    9.70040    2.70960   74.90000    0.50232    0.01927
   81.87400   81.87400  131.00610    8.78530    2.69110   74.90000    0.54195    0.03159
   81.99900   81.99900  133.27730    8.71450    2.69110   75.51280    0.56441    0.03244
   82.12400   82.12400  135.06340    8.83260    2.68650   75.34810    0.57739    0.03562
   82.24900   82.24900  135.90230    8.87930    2.68510   74.97790    0.59037    0.03693
   82.37400   82.37400  135.64990    8.76680    2.68700   74.75450    0.58788    0.03573
   82.49900   82.49900  134.79850    8.53750    2.68430   74.62320    0.57946    0.03699
   82.62400   82.62400  135.93260    7.86220    2.70120   75.03350    0.59067    0.02753
   82.74900   82.74900  140.68140    7.18620    2.70440   75.99370    0.63763    0.02744
   82.87400   82.87400  144.82620    6.76140    2.70550   76.95880    0.67862    0.02835
   82.99900   82.99900  147.12980    6.54350    2.70930   77.63120    0.70140    0.02699
   83.12400   83.12400  147.68030    6.39330    2.71520   77.94420    0.70685    0.02374
   83.24900   83.24900  147.33430    6.19460    2.71340   78.19040    0.70342    0.02467
   83.37400   83.37400  146.79420    6.03810    2.71950   78.67310    0.69808    0.02090
   83.49900   83.49900  148.20200    5.90740    2.70890   78.73910    0.71200    0.02762
   83.62400   83.62400  149.65960    5.80010    2.69530   79.08590    0.70872    0.03545
   83.74900   83.74900  149.62010    5.82150    2.68360   79.57520    0.70544    0.04217
   83.87400   83.87400  147.20630    6.12490    2.67170   79.45180    0.70216    0.04901
   83.99900   83.99900  142.10270    6.60990    2.67610   78.87740    0.65169    0.04452
   84.12400   84.12400  138.84500    6.93620    2.68190   78.09010    0.61947    0.03959
   84.24900   84.24900  137.42400    7.28960    2.68880   77.21650    0.60542    0.03534
   84.37400   84.37400  137.00640    7.60120    2.69190   76.59490    0.60129    0.03337
   84.49900   84.49900  136.36300    7.78540    2.69220   76.24710    0.59493    0.03295
   84.62400   84.62400  134.02690    7.84120    2.70440   75.50000    0.57183    0.02494
   84.74900   84.74900  133.91490    8.13650    2.70930   75.98650    0.57072    0.02204
   84.87400   84.87400  139.63510    8.17650    2.71760   75.15290    0.62729    0.01933
   84.99900   84.99900  143.92520    7.94370    2.72160   75.36700    0.66971    0.01859
   85.12400   85.12400  147.27910    7.54940    2.72380   76.35420    0.70288    0.01857
   85.24900   85.24900  152.77800    7.23370    2.73010   76.47260    0.75726    0.01694
   85.37400   85.37400  148.58170    7.57680    2.73000   76.22640    0.69727    0.01473
   85.49900   85.49900  140.64650    8.21210    2.73850   75.32120    0.63729    0.00748
   85.62400   85.62400  133.31870    9.31210    2.74890   73.12320    0.56482    0.00000
   85.74900   85.74900  128.31470   11.18090    2.75500   70.15000    0.51534    0.00000
   85.87400   85.87400  127.35400   13.25330    2.75300   67.35380    0.50584    0.00000
   85.99900   85.99900  132.42610   13.73340    2.74310   65.91030    0.55599    0.00171
   86.12400   86.12400  135.48830   11.35960    2.72800   66.56670    0.58628    0.01169
   86.24900   86.24900  140.25320   10.23540    2.73070   67.48460    0.62484    0.01157
   86.37400   86.37400  143.28820    9.38270    2.73610   69.22610    0.66341    0.00988
   86.49900   86.49900  142.56810    8.85830    2.74090   71.22790    0.65629    0.00680
   86.62400   86.62400  137.44950    9.00950    2.74860   72.35210    0.60567    0.00038
   86.74900   86.74900  129.31040    9.30950    2.76390   71.28540    0.52518    0.00000
   86.87400   86.87400  130.28810    9.27370    2.77430   71.42640    0.54285    0.00000
   86.99900   86.99900  132.88280    8.80140    2.77470   71.21280    0.56051    0.00000
   87.12400   87.12400  137.56610    7.85400    2.76480   71.43370    0.60682    0.00000
   87.24900   87.24900  142.82640    6.76980    2.74900   73.17370    0.65884    0.00216
   87.37400   87.37400  144.63860    6.23980    2.73480   77.07880    0.67677    0.01114
   87.49900   87.49900  151.44690    6.17980    2.71680   76.58650    0.74409    0.02422
   87.62400   87.62400  155.54840    6.25710    2.69590   78.25830    0.78465    0.03798
   87.74900   87.74900  157.35020    6.58860    2.69220   79.10000    0.80247    0.04082
   87.87400   87.87400  156.67670    7.07630    2.70030   78.59490    0.79581    0.03583
   87.99900   87.99900  153.48020    7.58700    2.71020   77.40460    0.76420    0.02884
   88.12400   88.12400  148.47710    8.13600    2.72720   76.83030    0.72763    0.01751
   88.24890   88.24890  146.08380    8.71070    2.70850   76.48910    0.69106    0.02706
   88.37390   88.37390  140.82270    9.08790    2.69950   76.16130    0.63903    0.03036
   88.49890   88.49890  135.08560    9.22660    2.68990   76.04170    0.61832    0.03519
   88.62390   88.62390  132.03690    9.17400    2.67990   76.14740    0.59762    0.04025
   88.74890   88.74890  134.54110    9.01820    2.67950   76.30580    0.57691    0.03970
   88.87390   88.87390  143.43170    8.53470    2.66380   76.38780    0.66483    0.04558
   88.99890   88.99890  154.58940    8.01020    2.66240   77.09760    0.77517    0.05232
   89.12390   89.12390  160.50240    7.63940    2.66640   78.07290    0.83365    0.05709
   89.24890   89.24890  161.46820    7.36320    2.67270   78.70000    0.84320    0.05377
   89.37390   89.37390  159.55330    7.10890    2.67950   78.74760    0.82426    0.04907
   89.49890   89.49890  155.42150    6.94230    2.68610   78.99370    0.78340    0.04322
   89.62390   89.62390  151.77540    6.76760    2.69420   79.63970    0.74734    0.03756
   89.74890   89.74890  151.45920    6.63820    2.69400   79.73810    0.74422    0.03756
   89.87390   89.87390  154.56600    6.55690    2.69230   79.87560    0.77494    0.03972
