~Version ---------------------------------------------------
VERS.   2.0 : CWLS log ASCII Standard -VERSION 2.0
WRAP.    NO : One line per depth step
DLM . SPACE : Column Data Section Delimiter
~Well ------------------------------------------------------
STRT.m   0.00000 : START DEPTH
STOP.m 204.74750 : STOP DEPTH
STEP.m   0.12500 : STEP
NULL.   -9999.25 : NULL VALUE
COMP.            : COMPANY
WELL.     WELL-A : 
FLD .            : 
LOC .            : LOCATION
PROV.            : PROVINCE
CNTY.            : COUNTY
STAT.            : STATE
CTRY.            : 
SRVC.            : SERVICE COMPANY
DATE.            : DATE
UWI .            : 
API .            : API NUMBER
~Curve Information -----------------------------------------
MD  .m     : 
TVD .m     : 
GR  .m     : 
LLD .API   : 
RHOB.ohm   : 
DT  .g/cc  : 
VCL .frac  : 
PHIE.frac  : 
~Params ----------------------------------------------------
~Other -----------------------------------------------------
~ASCII -----------------------------------------------------
# ...
   67.49920   67.49920  166.61000    6.39530    2.70950   79.78650    0.89404    0.03417
   67.62420   67.62420  166.30060    5.99460    2.72890   80.07690    0.89098    0.02271
   67.74920   67.74920  165.23920    5.71910    2.75930   80.66730    0.88235    0.00461
   67.87420   67.87420  164.55520    5.56530    2.79260   81.65910    0.87372    0.00399
   67.99920   67.99920  160.97870    5.48350    2.79440   81.24890    0.83836    0.00235
   68.12420   68.12420  164.67430    5.52770    2.76080   81.34450    0.87490    0.00345
   68.24920   68.24920  165.77260    5.52990    2.72440   81.67160    0.88576    0.02514
   68.37420   68.37420  165.84560    5.42980    2.70220   82.00910    0.88648    0.03815
   68.49920   68.49920  166.58760    5.24000    2.69860   82.34720    0.89382    0.04054
   68.62420   68.62420  166.16410    5.05350    2.70190   83.00000    0.88963    0.03845
   68.74920   68.74920  163.84610    4.91520    2.69190   84.07080    0.86671    0.04343
   68.87420   68.87420  167.87430    4.86360    2.68820   84.68650    0.90655    0.04710
   68.99920   68.99920  167.13760    4.94270    2.68800   84.99290    0.89926    0.04694
   69.12420   69.12420  165.48570    5.12330    2.69860   84.84370    0.88293    0.04012
   69.24920   69.24920  169.44260    5.34500    2.72090   84.09580    0.92206    0.02857
   69.37420   69.37420  159.58340    5.59970    2.70430   83.27530    0.82456    0.03458
   69.49920   69.49920  162.91340    5.77930    2.70550   82.75290    0.85749    0.03513
   69.62420   69.62420  158.24600    5.89120    2.68910   82.71310    0.81133    0.04297
   69.74920   69.74920  156.73440    5.97670    2.67730   82.64580    0.79638    0.04930
   69.87420   69.87420  160.85340    6.08680    2.67790   82.35900    0.83712    0.05049
   69.99920   69.99920  157.21110    6.26760    2.67100   82.18210    0.80110    0.05316
   70.12420   70.12420  158.84400    6.40970    2.68360   81.60770    0.81724    0.04641
   70.24920   70.24920  156.39390    6.43250    2.69280   81.36670    0.79302    0.04011
   70.37420   70.37420  155.19190    6.41970    2.70500   81.30000    0.78113    0.03252
   70.49920   70.49920  155.17560    6.43390    2.71730   80.96210    0.78097    0.02533
   70.62420   70.62420  153.90450    6.53890    2.72520   80.26330    0.76840    0.02023
   70.74920   70.74920  148.61310    6.84270    2.73190   80.67360    0.71746    0.01438
   70.87420   70.87420  143.60350    7.27210    2.74150   79.16470    0.66653    0.00684
   70.99920   70.99920  137.12180    7.89660    2.75440   78.11190    0.60243    0.00000
   71.12420   71.12420  132.21480    8.63930    2.76030   76.88400    0.56298    0.00000
   71.24920   71.24920  129.14390    9.36810    2.75810   75.24490    0.52354    0.00000
   71.37420   71.37420  125.16290    9.97260    2.75650   73.64230    0.48417    0.00000
   71.49920   71.49920  120.99660   11.03990    2.75550   72.65770    0.44297    0.00000
   71.62420   71.62420  115.57990   11.90340    2.77300   70.29490    0.38940    0.00000
   71.74910   71.74910  111.18670   12.28170    2.79470   69.30000    0.34596    0.00000
   71.87410   71.87410  109.14170   11.95300    2.81010   68.90580    0.32573    0.00000
   71.99910   71.99910  111.00640   10.94130    2.80970   68.36830    0.34417    0.00000
   72.12410   72.12410  119.83510    9.78680    2.78270   69.84520    0.43148    0.00000
   72.24910   72.24910  125.29540    8.66180    2.74920   70.92710    0.48548    0.00000
   72.37410   72.37410  128.41140    7.84710    2.71520   72.66540    0.51629    0.01652
   72.49910   72.49910  128.06950    7.66490    2.69290   74.03040    0.51291    0.02944
   72.62410   72.62410  125.37790    7.90930    2.68510   74.32500    0.48629    0.03299
   72.74910   72.74910  123.26950    8.06450    2.68690   73.56340    0.46544    0.03115
   72.87410   72.87410  125.27400    8.45370    2.69660   74.30190    0.48527    0.02623
   72.99910   72.99910  127.67610    8.40540    2.70800   73.61730    0.50902    0.02046
   73.12410   73.12410  133.51030    7.94360    2.71810   73.56560    0.56672    0.01674
   73.24910   73.24910  142.76510    7.37430    2.72280   74.60720    0.65824    0.01746
   73.37410   73.37410  151.95370    6.93060    2.72390   76.22000    0.74911    0.02026
   73.49910   73.49910  152.83290    6.55040    2.73440   76.80000    0.75780    0.01445
   73.62410   73.62410  155.80180    6.30190    2.73500   78.75000    0.78716    0.01521
   73.74910   73.74910  155.10660    6.15140    2.73960   79.51600    0.78029    0.01226
   73.87410   73.87410  154.86500    6.15440    2.73830   80.01630    0.77790    0.01293
   73.99910   73.99910  152.58010    6.27140    2.73080   80.07310    0.75530    0.01646
   74.12410   74.12410  143.90940    6.44590    2.72370   79.15350    0.66955    0.01736
   74.24910   74.24910  137.30880    6.86750    2.72530   78.74330    0.60428    0.01395
   74.37410   74.37410  136.49920    7.55650    2.71650   77.37890    0.59627    0.01879
   74.49910   74.49910  134.61540    7.81190    2.72080   76.01420    0.57765    0.01557
   74.62410   74.62410  132.52980    7.72130    2.72600   75.56140    0.55702    0.01175
   74.74910   74.74910  131.68740    7.50390    2.72760   75.94180    0.55720    0.01082
   74.87410   74.87410  132.56600    7.34420    2.73980   75.71440    0.55738    0.00369
   74.99910   74.99910  143.77020    6.73030    2.72950   76.53490    0.66818    0.01392
   75.12410   75.12410  147.52740    6.50830    2.71870   77.55070    0.70533    0.02164
   75.24910   75.24910  146.66720    6.74110    2.70550   77.90510    0.69683    0.02904
   75.37410   75.37410  142.54720    7.21120    2.69580   77.26920    0.65608    0.03317
   75.49910   75.49910  136.64780    7.64820    2.69660   75.94230    0.59774    0.03049
   75.62410   75.62410  133.58560    8.12710    2.70320   75.53200    0.56746    0.02548
   75.74910   75.74910  132.33920    8.95890    2.71390   74.66930    0.55514    0.01785
   75.87410   75.87410  129.79280    9.15840    2.72770   74.34250    0.52995    0.00973
   75.99910   75.99910  129.13900    8.92730    2.73660   74.37920    0.52349    0.00428
   76.12410   76.12410  131.63040    8.65890    2.73890   74.65140    0.55362    0.00408
   76.24910   76.24910  135.23290    8.73270    2.74090   75.17790    0.58375    0.00405
   76.37410   76.37410  135.74580    8.85050    2.73360   74.68560    0.58882    0.00851
   76.49910   76.49910  133.88500    9.09550    2.74560   74.87070    0.57042    0.00080
   76.62410   76.62410  133.14830    9.59370    2.75020   74.50320    0.56314    0.00000
   76.74910   76.74910  133.15730    9.96680    2.75120   73.77790    0.56323    0.00000
   76.87410   76.87410  134.17860    9.80580    2.75680   73.54810    0.57333    0.00000
   76.99910   76.99910  142.66690    9.14110    2.75530   75.02500    0.65727    0.00000
   77.12410   77.12410  146.70930    8.68930    2.76170   75.95540    0.70170    0.00000
   77.24910   77.24910  151.65340    8.69260    2.76800   77.75420    0.74614    0.00000
   77.37410   77.37410  152.27160    9.34650    2.77430   78.63270    0.75225    0.00000
   77.49910   77.49910  146.08450   10.67820    2.78800   78.32840    0.69106    0.00000
   77.62410   77.62410  134.56860   12.45570    2.82080   77.91060    0.57718    0.00000
   77.74910   77.74910  124.59790   13.35960    2.87040   75.28910    0.47858    0.00000
   77.87410   77.87410  115.38840   13.77470    2.92180   74.34100    0.38751    0.00000
   77.99910   77.99910  117.03510   13.59590    2.93900   74.46350    0.40379    0.00000
   78.12410   78.12410  124.53310   12.99470    2.92490   74.86790    0.47794    0.00000
   78.24910   78.24910  131.18100   12.53960    2.89270   75.22430    0.54368    0.00000
   78.37410   78.37410  136.49060   13.42710    2.85290   76.37310    0.59619    0.00000
   78.49910   78.49910  132.46800   15.47400    2.83890   75.12000    0.55641    0.00000
   78.62410   78.62410  125.85910   17.36520    2.82710   74.24180    0.49105    0.00000
