~Version ---------------------------------------------------
VERS.   2.0 : CWLS log ASCII Standard -VERSION 2.0
WRAP.    NO : One line per depth step
DLM . SPACE : Column Data Section Delimiter
~Well ------------------------------------------------------
STRT.m   0.00000 : START DEPTH
STOP.m 204.74750 : STOP DEPTH
STEP.m   0.12500 : STEP
NULL.   -9999.25 : NULL VALUE
COMP.            : COMPANY
WELL.     WELL-A : 
FLD .            : 
LOC .            : LOCATION
PROV.            : PROVINCE
CNTY.            : COUNTY
STAT.            : STATE
CTRY.            : 
SRVC.            : SERVICE COMPANY
DATE.            : DATE
UWI .            : 
API .            : API NUMBER
~Curve Information -----------------------------------------
MD  .m     : 
TVD .m     : 
GR  .m     : 
LLD .API   : 
RHOB.ohm   : 
DT  .g/cc  : 
VCL .frac  : 
PHIE.frac  : 
~Params ----------------------------------------------------
~Other -----------------------------------------------------
~ASCII -----------------------------------------------------
# ...
   33.74960   33.74960  152.97070    5.74280    2.68550   81.18440    0.75916    0.04310
   33.87460   33.87460  150.90480    6.18750    2.69050   80.61010    0.73873    0.03940
   33.99960   33.99960  149.26410    6.85480    2.70650   79.31030    0.72251    0.02943
   34.12460   34.12460  146.54550    7.51150    2.70540   78.06160    0.69562    0.02905
   34.24960   34.24960  144.39360    8.12410    2.70310   77.09900    0.67738    0.02970
   34.37460   34.37460  142.85500    8.45320    2.70180   76.44040    0.65913    0.02977
   34.49960   34.49960  141.61810    8.18710    2.69720   76.09520    0.64690    0.03200
   34.62460   34.62460  145.52820    7.29450    2.70420   76.99770    0.68556    0.02937
   34.74960   34.74960  145.14970    6.87160    2.69090   78.62540    0.68182    0.03701
   34.87460   34.87460  149.24100    6.65540    2.68950   78.92680    0.72228    0.03936
   34.99960   34.99960  150.24800    6.49430    2.69540   79.17710    0.73224    0.03629
   35.12460   35.12460  146.38200    6.36240    2.70580   79.90620    0.69401    0.02876
   35.24960   35.24960  149.40130    6.40550    2.72980   79.50000    0.72386    0.01585
   35.37460   35.37460  153.03710    6.32550    2.70550   79.08570    0.75982    0.03142
   35.49960   35.49960  156.83640    6.00770    2.69880   79.06480    0.79739    0.03677
   35.62460   35.62460  158.07570    5.76590    2.69030   79.47440    0.80965    0.04220
   35.74960   35.74960  154.31320    5.68970    2.68450   79.92880    0.77244    0.04418
   35.87460   35.87460  145.53310    5.71040    2.69200   80.01090    0.68561    0.03651
   35.99960   35.99960  140.52200    5.63260    2.69200   80.09300    0.63606    0.03463
   36.12460   36.12460  140.97850    5.48150    2.70440   79.80050    0.64057    0.02755
   36.24960   36.24960  146.83730    5.36200    2.71090   80.09820    0.69851    0.02594
   36.37460   36.37460  153.26800    5.20680    2.70980   80.75050    0.76210    0.02900
   36.49960   36.49960  157.24110    5.00660    2.70520   81.57290    0.80139    0.03318
   36.62460   36.62460  158.99180    4.85060    2.70490   82.60910    0.81871    0.03401
   36.74960   36.74960  155.71590    4.85250    2.69540   82.85490    0.78631    0.03834
   36.87460   36.87460  158.16240    4.96380    2.70040   82.69900    0.81050    0.03633
   36.99960   36.99960  158.73420    5.03550    2.69670   82.10960    0.81616    0.03871
   37.12460   37.12460  158.85000    5.06520    2.68910   81.69330    0.81730    0.04319
   37.24960   37.24960  161.56050    5.11800    2.68680   81.83430    0.84411    0.04555
   37.37460   37.37460  163.50490    5.27880    2.67420   81.42400    0.86334    0.05365
   37.49960   37.49960  161.06330    5.36330    2.68670   81.09150    0.83919    0.04543
   37.62460   37.62460  162.52970    5.42510    2.69600   81.05910    0.85369    0.04054
   37.74960   37.74960  163.21300    5.58490    2.70480   81.14120    0.86045    0.03565
   37.87460   37.87460  162.68800    5.84570    2.70670   81.06060    0.85526    0.03434
   37.99960   37.99960  164.60270    6.10640    2.68790   80.54190    0.87419    0.04605
   38.12460   38.12460  158.71160    6.48660    2.67770   79.64080    0.81594    0.04981
   38.24960   38.24960  152.35670    7.03930    2.68110   79.50000    0.75309    0.04544
   38.37460   38.37460  146.21970    7.52510    2.69250   78.57690    0.69240    0.03647
   38.49960   38.49960  140.44510    7.90630    2.70170   77.30000    0.63530    0.02893
   38.62460   38.62460  136.23360    8.11860    2.70250   76.48460    0.59365    0.02688
   38.74950   38.74950  137.65430    7.88620    2.70210   76.40270    0.60770    0.02765
   38.87450   38.87450  144.98580    7.45440    2.69070   76.79660    0.68020    0.03706
   38.99950   38.99950  150.58250    7.08880    2.69160   77.39100    0.73555    0.03863
   39.12450   39.12450  155.62980    6.77750    2.68880   77.87370    0.78546    0.04216
   39.24950   39.24950  158.30510    6.55390    2.68200   78.22740    0.81192    0.04524
   39.37450   39.37450  155.98300    6.48920    2.68170   78.64510    0.78895    0.04645
   39.49950   39.49950  158.33970    6.65790    2.68060   79.13660    0.81226    0.04797
   39.62450   39.62450  154.62090    6.81450    2.68920   78.98560    0.77548    0.04155
   39.74950   39.74950  152.46050    6.82630    2.69910   78.41830    0.75412    0.03495
   39.87450   39.87450  152.66880    6.76620    2.70380   77.89330    0.75618    0.03228
   39.99950   39.99950  154.17920    6.72320    2.69850   77.73520    0.77111    0.03595
   40.12450   40.12450  155.39960    6.72160    2.68070   77.90000    0.78318    0.04681
   40.24950   40.24950  156.99130    6.82750    2.68460   77.73690    0.79892    0.04513
   40.37450   40.37450  152.24320    6.86570    2.71040   76.74570    0.75197    0.02826
   40.49950   40.49950  149.25510    6.93950    2.74090   75.92600    0.72242    0.00931
   40.62450   40.62450  150.44510    7.01620    2.75660   75.68300    0.73419    0.00057
   40.74950   40.74950  154.39110    6.97930    2.74330   75.97690    0.77321    0.00983
   40.87450   40.87450  159.73820    6.69640    2.71030   76.63330    0.82609    0.03113
   40.99950   40.99950  163.01080    6.56910    2.69890   77.43720    0.85845    0.03902
   41.12450   41.12450  160.51330    6.41380    2.69760   78.48080    0.83375    0.03885
   41.24950   41.24950  155.57610    6.21690    2.70780   79.28910    0.78493    0.03103
   41.37450   41.37450  152.33710    6.03740    2.71930   79.65950    0.75290    0.02309
   41.49950   41.49950  153.86910    5.98660    2.70700   79.90700    0.76805    0.03086
   41.62450   41.62450  158.86180    5.95480    2.70380   80.23520    0.81742    0.03460
   41.74950   41.74950  162.16940    6.04650    2.69910   80.10240    0.85013    0.03859
   41.87450   41.87450  162.06880    6.28450    2.70230   79.61670    0.84914    0.03668
   41.99950   41.99950  159.00140    6.60380    2.71050   78.96060    0.81880    0.03074
   42.12450   42.12450  155.23830    6.89790    2.71630   78.30510    0.78159    0.02593
   42.24950   42.24950  155.93880    7.05580    2.71690   77.64870    0.78851    0.02585
   42.37450   42.37450  155.26730    6.94090    2.71430   77.90380    0.78187    0.02679
   42.49950   42.49950  157.65950    6.72830    2.71280   77.94200    0.80579    0.02890
   42.62450   42.62450  160.10460    6.49930    2.71900   78.18000    0.82971    0.02618
   42.74950   42.74950  160.22500    6.28580    2.73180   78.86340    0.83090    0.01874
   42.87450   42.87450  157.66950    6.08490    2.74110   79.80400    0.81210    0.01259
   42.99950   42.99950  156.42190    6.12200    2.73610   79.88600    0.79329    0.01480
   43.12450   43.12450  153.75520    6.14330    2.71090   80.10430    0.76692    0.02854
   43.24950   43.24950  156.72080    6.18660    2.69010   80.40060    0.79625    0.04181
   43.37450   43.37450  160.27600    6.34380    2.67940   80.47140    0.83141    0.04940
   43.49950   43.49950  158.81840    6.65220    2.67660   80.18590    0.81699    0.05049
   43.62450   43.62450  156.88490    6.95900    2.67770   80.10380    0.79787    0.04912
   43.74950   43.74950  152.84550    7.08030    2.67740   78.92690    0.75792    0.04779
   43.87450   43.87450  151.21630    7.26210    2.67580   78.11790    0.74181    0.04811
   43.99950   43.99950  151.46370    7.42430    2.68080   77.92670    0.74426    0.04528
   44.12450   44.12450  151.31470    7.51730    2.69080   78.02740    0.74279    0.03938
   44.24950   44.24950  148.24590    7.57520    2.69770   77.76870    0.71244    0.03419
   44.37450   44.37450  147.60490    7.99300    2.71020   77.35850    0.70610    0.02664
   44.49950   44.49950  145.09890    8.34420    2.71510   76.87790    0.68132    0.02284
   44.62450   44.62450  143.66570    8.35620    2.71280   76.17680    0.66714    0.02364
   44.74950   44.74950  143.19340    8.20790    2.70560   76.11150    0.66247    0.02768
   44.87450   44.87450  144.03250    8.07530    2.69660   76.80190    0.67077    0.03325
