~Version ---------------------------------------------------
VERS.   2.0 : CWLS log ASCII Standard -VERSION 2.0
WRAP.    NO : One line per depth step
DLM . SPACE : Column Data Section Delimiter
~Well ------------------------------------------------------
STRT.m   0.00000 : START DEPTH
STOP.m 204.74750 : STOP DEPTH
STEP.m   0.12500 : STEP
NULL.   -9999.25 : NULL VALUE
COMP.            : COMPANY
WELL.     WELL-A : 
FLD .            : 
LOC .            : LOCATION
PROV.            : PROVINCE
CNTY.            : COUNTY
STAT.            : STATE
CTRY.            : 
SRVC.            : SERVICE COMPANY
DATE.            : DATE
UWI .            : 
API .            : API NUMBER
~Curve Information -----------------------------------------
MD  .m     : 
TVD .m     : 
GR  .m     : 
LLD .API   : 
RHOB.ohm   : 
DT  .g/cc  : 
VCL .frac  : 
PHIE.frac  : 
~Params ----------------------------------------------------
~Other -----------------------------------------------------
~ASCII -----------------------------------------------------
    0.00000    0.00000   76.20330    7.46620    2.02200   72.15210    0.00000    0.40234
    0.12500    0.12500   76.20330    6.37970    2.02200   74.84520    0.00000    0.40234
    0.25000    0.25000   76.20330    5.62610    2.02200   76.92400    0.00000    0.40234
    0.37500    0.37500   76.20330    5.19950    2.02520   78.00180    0.00000    0.40047
    0.50000    0.50000   76.20330    4.86730    2.04080   78.50000    0.00000    0.39135
    0.62500    0.62500   76.20330    4.78980    2.04630   78.17630    0.00000    0.38813
    0.75000    0.75000   76.20330    4.90480    2.09000   79.23370    0.00000    0.38581
    0.87500    0.87500   76.20330    4.91370    2.09670   80.19270    0.00000    0.38349
    1.00000    1.00000   76.20330    4.75710    2.05820   80.32020    0.00000    0.38117
    1.12500    1.12500   76.20330    4.53910    2.01420   79.99620    0.00000    0.40690
    1.25000    1.25000   76.20330    4.31970    2.01030   82.70380    0.00000    0.40918
    1.37500    1.37500   76.20330    4.01920    2.02790   84.09620    0.00000    0.39889
    1.50000    1.50000   76.20330    3.81990    2.03330   84.03140    0.00000    0.39573
    1.62500    1.62500   76.20330    3.84970    2.02070   83.37160    0.00000    0.40310
    1.75000    1.75000   76.20330    4.25920    1.99750   81.66040    0.00000    0.41667
    1.87500    1.87500   76.20330    5.21250    1.98210   76.40000    0.00000    0.42567
    2.00000    2.00000   76.20330    7.17400    1.98030   71.82550    0.00000    0.42673
    2.12500    2.12500   76.20330   10.33350    1.99260   67.96490    0.00000    0.41953
    2.25000    2.25000   76.20330   13.33610    2.00350   66.21090    0.00000    0.41316
    2.37500    2.37500   76.20330   14.74050    2.00550   66.16100    0.00000    0.41199
    2.50000    2.50000   76.20330   13.62390    1.99960   66.85850    0.00000    0.41544
    2.62500    2.62500   76.20330   10.78650    2.00150   69.11490    0.00000    0.41433
    2.75000    2.75000   76.20330    8.67970    2.00030   71.44660    0.00000    0.41503
    2.87500    2.87500   76.20330    7.58140    2.00260   73.12530    0.00000    0.41368
    3.00000    3.00000   76.20330    6.80740    2.00020   75.48340    0.00000    0.41509
    3.12500    3.12500   76.20330    5.97880    1.99140   78.22380    0.00000    0.42023
    3.25000    3.25000   76.20330    5.26250    1.98410   79.13250    0.00000    0.42450
    3.37500    3.37500   76.20330    4.93060    1.97920   81.14270    0.00000    0.42737
    3.50000    3.50000   76.20330    4.68680    2.03170   80.85910    0.00000    0.39667
    3.62500    3.62500   76.20330    4.49700    2.13590   81.36580    0.00000    0.40191
    3.75000    3.75000   76.20330    4.35080    2.27630   82.54550    0.00000    0.40715
    3.87500    3.87500   76.20330    4.22760    2.39390   83.25960    0.00000    0.41240
    4.00000    4.00000   76.20330    4.05160    2.30950   83.01350    0.00000    0.41764
    4.12500    4.12500   76.20330    3.94080    2.09110   81.79780    0.00000    0.42288
    4.25000    4.25000   76.20330    4.20520    1.97790   78.61830    0.00000    0.42813
    4.37500    4.37500   76.20330    4.89420    1.92910   75.53520    0.00000    0.45667
    4.50000    4.50000   76.20330    6.00580    1.91940   73.47600    0.00000    0.46234
    4.62500    4.62500   76.20330    7.53880    1.95500   72.29630    0.00000    0.44152
    4.75000    4.75000   76.20330    9.85890    2.00390   75.16810    0.00000    0.41292
    4.87500    4.87500   76.20330   10.27830    2.02490   76.71540    0.00000    0.40064
    5.00000    5.00000   76.20330    8.71770    2.02230   77.17420    0.00000    0.40216
    5.12500    5.12500   76.20330    6.69120    2.00770   77.18370    0.00000    0.41070
    5.25000    5.25000   76.20330    5.55250    1.99430   77.16360    0.00000    0.41854
    5.37500    5.37500   76.20330    5.15330    1.99260   76.71230    0.00000    0.41953
    5.50000    5.50000   76.20330    4.98280    1.98250   76.73990    0.00000    0.42544
    5.62500    5.62500   76.20330    5.06100    1.97070   76.25590    0.00000    0.43234
    5.74990    5.74990   76.20330    5.40930    1.96540   76.12500    0.00000    0.43544
    5.87490    5.87490   76.20330    5.89340    1.96270   76.23390    0.00000    0.43702
    5.99990    5.99990   76.20330    6.29470    1.95170   75.86070    0.00000    0.44345
    6.12490    6.12490   76.20330    6.55840    1.93750   75.45050    0.00000    0.45175
    6.24990    6.24990   76.20330    6.75350    1.92610   75.83170    0.00000    0.45842
    6.37490    6.37490   76.20330    6.66820    1.93220   76.18870    0.00000    0.45485
    6.49990    6.49990   76.20330    6.18890    1.94800   76.27820    0.00000    0.44561
    6.62490    6.62490   76.20330    5.42580    1.96290   76.15900    0.00000    0.43690
    6.74990    6.74990   76.20330    4.81370    1.97070   76.20000    0.00000    0.43234
    6.87490    6.87490   76.20330    4.60790    1.97770   75.87180    0.00000    0.42825
    6.99990    6.99990   76.20330    4.46740    2.02470   75.92800    0.00000    0.40076
    7.12490    7.12490   76.20330    4.37660    2.02280   75.82370    0.00000    0.40187
    7.24990    7.24990   76.20330    4.33350    1.98790   75.69610    0.00000    0.42228
    7.37490    7.37490   76.20330    4.32730    1.97360   75.90000    0.00000    0.43064
    7.49990    7.49990   76.20330    4.26640    1.91200   75.90000    0.00000    0.43202
    7.62490    7.62490   76.20330    4.14060    1.86000   75.90000    0.00000    0.43340
    7.74990    7.74990   76.20330    4.07690    1.83050   75.90000    0.00000    0.43478
    7.87490    7.87490   76.20330    4.10290    1.83240   75.90000    0.00000    0.43616
    7.99990    7.99990   76.20330    4.17670    1.86330   75.90000    0.00000    0.43754
    8.12490    8.12490   76.20330    4.19350    1.90790   75.90000    0.00000    0.43891
    8.24990    8.24990   76.20330    4.19810    1.95710   75.90000    0.00000    0.44029
    8.37490    8.37490   76.20330    4.29190    1.97600   75.90000    0.00000    0.42924
    8.49990    8.49990   76.20330    4.42010    1.98300   75.90000    0.00000    0.42515
    8.62490    8.62490   76.20330    4.59000    1.97520   75.90000    0.00000    0.42971
    8.74990    8.74990   76.20330    4.84260    1.94440   75.90000    0.00000    0.44772
    8.87490    8.87490   76.20330    5.25090    1.89530   75.90000    0.00000    0.44831
    8.99990    8.99990   76.20330    5.75850    1.83880   75.90000    0.00000    0.44891
    9.12490    9.12490   76.20330    6.14810    1.79080   75.90000    0.00000    0.44950
    9.24990    9.24990   76.20330    6.36640    1.77070   75.90000    0.00000    0.45009
    9.37490    9.37490   76.20330    6.34170    1.78020   75.90000    0.00000    0.45069
    9.49990    9.49990   76.20330    5.99730    1.80210   75.90000    0.00000    0.45128
    9.62490    9.62490   76.20330    5.59160    1.82590   75.90000    0.00000    0.45188
    9.74990    9.74990   76.20330    5.29020    1.83770   75.90000    0.00000    0.45247
    9.87490    9.87490   76.20330    5.12190    1.84650   75.90000    0.00000    0.45306
    9.99990    9.99990   76.20330    5.07380    1.86370   75.90000    0.00000    0.45366
   10.12490   10.12490   76.20330    5.12160    1.89270   75.90000    0.00000    0.45425
   10.24990   10.24990   76.20330    5.26220    1.91390   75.90000    0.00000    0.45484
   10.37490   10.37490   76.20330    5.40960    1.93120   75.90000    0.00000    0.45544
   10.49990   10.49990   76.20330    5.41110    1.93050   75.90000    0.00000    0.45585
   10.62490   10.62490   76.20330    5.36280    1.93680   75.90000    0.00000    0.45216
   10.74990   10.74990   76.20330    5.27900    1.94890   75.90000    0.00000    0.44509
   10.87490   10.87490   76.20330    5.11190    1.94750   75.90000    0.00000    0.44591
   10.99990   10.99990   76.20330    4.98040    1.95690   75.90000    0.00000    0.44041
   11.12490   11.12490   76.20330    4.95730    1.94510   75.90000    0.00000    0.44731
