~Version ---------------------------------------------------
VERS.   2.0 : CWLS log ASCII Standard -VERSION 2.0
WRAP.    NO : One line per depth step
DLM . SPACE : Column Data Section Delimiter
~Well ------------------------------------------------------
STRT.m   0.00000 : START DEPTH
STOP.m 204.74750 : STOP DEPTH
STEP.m   0.12500 : STEP
NULL.   -9999.25 : NULL VALUE
COMP.            : COMPANY
WELL.     WELL-A : 
FLD .            : 
LOC .            : LOCATION
PROV.            : PROVINCE
CNTY.            : COUNTY
STAT.            : STATE
CTRY.            : 
SRVC.            : SERVICE COMPANY
DATE.            : DATE
UWI .            : 
API .            : API NUMBER
~Curve Information -----------------------------------------
MD  .m     : 
TVD .m     : 
GR  .m     : 
LLD .API   : 
RHOB.ohm   : 
DT  .g/cc  : 
VCL .frac  : 
PHIE.frac  : 
~Params ----------------------------------------------------
~Other -----------------------------------------------------
~ASCII -----------------------------------------------------
# ...
   89.99890   89.99890  158.78660    6.51280    2.68960   80.15190    0.81668    0.04288
   90.12390   90.12390  161.12020    6.49210    2.68230   80.28400    0.83975    0.04802
   90.24890   90.24890  164.55990    6.52530    2.67000   80.11990    0.87377    0.05209
   90.37390   90.37390  164.29970    6.49750    2.67280   80.53200    0.87120    0.05477
   90.49890   90.49890  163.17650    6.47660    2.67150   80.64600    0.86009    0.05511
   90.62390   90.62390  160.39850    6.46360    2.67220   80.41970    0.83262    0.05366
   90.74890   90.74890  156.14000    6.46550    2.67760   80.15430    0.79050    0.04890
   90.87390   90.87390  153.28760    6.51920    2.67730   80.40000    0.76230    0.04801
   90.99890   90.99890  156.29750    6.48670    2.68880   79.82540    0.79206    0.04241
   91.12390   91.12390  154.30040    6.64650    2.69200   79.37950    0.77231    0.03979
   91.24890   91.24890  149.17770    7.02450    2.69420   79.01540    0.72165    0.03659
   91.37390   91.37390  141.96100    7.51690    2.69700   78.34870    0.65029    0.03224
   91.49890   91.49890  134.37820    7.98190    2.69820   77.13840    0.57530    0.02870
   91.62390   91.62390  134.28460    8.43500    2.69460   76.64610    0.57437    0.03077
   91.74890   91.74890  136.61860    8.71680    2.69260   76.00610    0.59745    0.03282
   91.87390   91.87390  139.69570    8.68700    2.69060   76.19380    0.62788    0.03514
   91.99890   91.99890  141.23560    8.50470    2.69360   76.72980    0.64311    0.03265
   92.12390   92.12390  140.21360    8.34360    2.70110   77.22210    0.62556    0.02891
   92.24890   92.24890  137.68590    8.30750    2.70480   77.69520    0.60801    0.02608
   92.37390   92.37390  140.36290    8.23820    2.71110   77.53140    0.63448    0.02340
   92.49890   92.49890  146.04630    8.13820    2.70500   77.50000    0.69069    0.02910
   92.62390   92.62390  149.19390    7.97110    2.70040   77.40320    0.72181    0.03297
   92.74890   92.74890  148.75820    7.73330    2.70410   77.26950    0.70549    0.03018
   92.87390   92.87390  145.89210    7.46190    2.71640   77.22500    0.68916    0.02237
   92.99890   92.99890  141.99850    7.27770    2.72710   77.38880    0.65066    0.01466
   93.12390   93.12390  145.64180    7.17920    2.72680   77.01780    0.68669    0.01620
   93.24890   93.24890  147.62670    7.13060    2.71580   77.36800    0.70632    0.02337
   93.37390   93.37390  148.22600    7.24110    2.70360   77.74050    0.71224    0.03073
   93.49890   93.49890  147.67370    7.51510    2.69640   77.77740    0.70678    0.03474
   93.62390   93.62390  145.46150    7.81770    2.69450   77.71390    0.68793    0.03513
   93.74890   93.74890  143.86220    7.77820    2.69740   77.95970    0.66909    0.03272
   93.87390   93.87390  139.73010    7.82950    2.69880   76.76540    0.65375    0.03132
   93.99890   93.99890  140.75940    7.69270    2.69410   77.11150    0.63840    0.03349
   94.12390   94.12390  144.31300    7.32630    2.69060   77.86920    0.67230    0.03682
   94.24890   94.24890  147.61500    6.86810    2.69140   77.79140    0.70620    0.03764
   94.37390   94.37390  156.56040    6.69220    2.67880   78.85630    0.79466    0.04836
   94.49890   94.49890  156.03650    6.77180    2.67070   78.11310    0.78948    0.05290
   94.62390   94.62390  154.03850    7.47330    2.68350   76.62450    0.76972    0.04467
   94.74890   94.74890  143.63110    8.97550    2.71800   74.25960    0.66680    0.02059
   94.87390   94.87390  126.70900   11.61930    2.77240   71.05920    0.51137    0.00000
   94.99890   94.99890  112.19590   15.99050    2.83590   67.39810    0.35594    0.00000
   95.12390   95.12390  102.53610   24.13180    2.83300   64.93650    0.26041    0.00000
   95.24890   95.24890  103.74760   30.81870    2.80410   63.46670    0.27239    0.00000
   95.37390   95.37390  108.73760   27.25680    2.76910   63.26440    0.32174    0.00000
   95.49890   95.49890  116.12580   19.46630    2.74480   64.93240    0.39480    0.00000
   95.62390   95.62390  124.31200   14.41070    2.74160   67.54910    0.47575    0.00000
   95.74890   95.74890  129.09170   13.11580    2.75970   67.30000    0.52302    0.00000
   95.87390   95.87390  131.44090   10.88640    2.79160   68.43300    0.54625    0.00000
   95.99890   95.99890  131.63960    9.03250    2.80830   69.89660    0.56691    0.00000
   96.12390   96.12390  135.61790    7.91470    2.79380   71.50060    0.58756    0.00000
   96.24890   96.24890  145.77420    7.14790    2.75670   73.87090    0.68800    0.00000
   96.37380   96.37380  159.96280    6.14380    2.71990   77.60510    0.82831    0.01946
   96.49880   96.49880  165.21170    5.73640    2.70410   80.39490    0.88022    0.03681
   96.62380   96.62380  163.56360    6.00600    2.69440   81.13850    0.86392    0.04186
   96.74880   96.74880  158.26400    6.53550    2.68690   80.25260    0.81151    0.04426
   96.87380   96.87380  153.12180    7.36840    2.68350   78.76900    0.76066    0.04432
   96.99880   96.99880  150.32580    8.50100    2.68490   77.29950    0.73301    0.04246
   97.12380   97.12380  149.20720    9.74220    2.68850   75.60000    0.72195    0.03993
   97.24880   97.24880  145.39080    9.99380    2.69600   74.18610    0.68420    0.03411
   97.37380   97.37380  147.14880    9.80700    2.69930   73.96520    0.70159    0.03284
   97.49880   97.49880  149.87010    9.28110    2.70060   74.47280    0.72850    0.03310
   97.62380   97.62380  151.73180    8.53420    2.69720   75.20500    0.74691    0.03579
   97.74880   97.74880  152.01350    7.81470    2.68860   75.73370    0.74970    0.04092
   97.87380   97.87380  148.22290    7.88220    2.69260   75.97980    0.71221    0.03716
   97.99880   97.99880  140.83240    8.29820    2.69700   75.92470    0.63913    0.03182
   98.12380   98.12380  137.70520    8.68350    2.69950   75.26890    0.60820    0.02919
   98.24880   98.24880  138.97180    9.03740    2.70170   74.83940    0.62073    0.02838
   98.37380   98.37380  143.96120    9.24240    2.70370   75.02790    0.67007    0.02908
   98.49880   98.49880  151.79650    9.01810    2.70310   75.53030    0.74755    0.03236
   98.62380   98.62380  152.59040    8.31780    2.70090   76.26870    0.75540    0.03395
   98.74880   98.74880  153.22910    7.96390    2.68830   76.80480    0.76172    0.04156
   98.87380   98.87380  151.50490    7.97620    2.67490   76.70340    0.74467    0.04875
   98.99880   98.99880  147.94040    8.15830    2.66670   76.33720    0.70942    0.05220
   99.12380   99.12380  144.02450    8.28780    2.66550   76.25380    0.67069    0.05144
   99.24880   99.24880  140.86490    8.32470    2.66730   76.58200    0.63945    0.04920
   99.37380   99.37380  147.12480    8.37390    2.66730   77.06540    0.70135    0.05155
   99.49880   99.49880  153.02530    8.34910    2.66620   76.72310    0.75970    0.05440
   99.62380   99.62380  156.56290    8.26350    2.66530   76.56640    0.79469    0.05625
   99.74880   99.74880  155.02250    8.20890    2.66330   76.68220    0.77945    0.05831
   99.87380   99.87380  145.99410    8.31000    2.65630   76.27760    0.69017    0.05756
   99.99880   99.99880  140.41540    8.41910    2.63690   75.94940    0.63500    0.06681
  100.12380  100.12380  132.58100    8.86510    2.61640   75.90000    0.55753    0.06646
  100.24880  100.24880  128.94490    9.68280    2.60640   75.53820    0.52157    0.06769
  100.37380  100.37380  126.02090   10.74600    2.60920   74.96440    0.49265    0.06918
  100.49880  100.49880  121.70380   11.92080    2.61920   74.45290    0.44996    0.07015
  100.62380  100.62380  123.51840   13.18460    2.62010   74.20670    0.46791    0.07030
  100.74880  100.74880  121.67680   13.59340    2.63010   75.07790    0.44969    0.06377
  100.87380  100.87380  125.02810   13.18270    2.64420   74.74420    0.48283    0.05678
  100.99880  100.99880  125.10980   12.79540    2.66630   74.26880    0.48364    0.04388
  101.12380  101.12380  121.35790   12.83090    2.68450   73.79040    0.44654    0.03183
