~Version ---------------------------------------------------
VERS.   2.0 : CWLS log ASCII Standard -VERSION 2.0
WRAP.    NO : One line per depth step
DLM . SPACE : Column Data Section Delimiter
~Well ------------------------------------------------------
STRT.m   0.00000 : START DEPTH
STOP.m 204.74750 : STOP DEPTH
STEP.m   0.12500 : STEP
NULL.   -9999.25 : NULL VALUE
COMP.            : COMPANY
WELL.     WELL-A : 
FLD .            : 
LOC .            : LOCATION
PROV.            : PROVINCE
CNTY.            : COUNTY
STAT.            : STATE
CTRY.            : 
SRVC.            : SERVICE COMPANY
DATE.            : DATE
UWI .            : 
API .            : API NUMBER
~Curve Information -----------------------------------------
MD  .m     : 
TVD .m     : 
GR  .m     : 
LLD .API   : 
RHOB.ohm   : 
DT  .g/cc  : 
VCL .frac  : 
PHIE.frac  : 
~Params ----------------------------------------------------
~Other -----------------------------------------------------
~ASCII -----------------------------------------------------
# ...
  179.99780  179.99780  103.19470   36.30420    2.76290   59.69200    0.26692    0.00000
  180.12280  180.12280  115.25180   35.63610    2.75950   59.90000    0.38616    0.00000
  180.24780  180.24780  129.18950   33.22510    2.76520   60.57680    0.52399    0.00000
  180.37280  180.37280  138.91280   29.04190    2.77630   61.69790    0.62014    0.00000
  180.49780  180.49780  139.08920   24.46130    2.78280   62.57310    0.62189    0.00000
  180.62280  180.62280  141.68700   22.07680    2.78060   63.22950    0.64758    0.00000
  180.74780  180.74780  142.92700   19.91690    2.76600   63.30000    0.65984    0.00000
  180.87280  180.87280  145.11840   18.67000    2.76260   64.73520    0.68151    0.00000
  180.99780  180.99780  145.71020   18.09080    2.76060   65.78850    0.68736    0.00000
  181.12280  181.12280  144.83840   17.70240    2.75190   65.50380    0.67874    0.00122
  181.24780  181.24780  147.64570   17.00190    2.73950   65.11020    0.70650    0.00952
  181.37280  181.37280  152.08020   16.67990    2.73150   65.76670    0.75036    0.01586
  181.49780  181.49780  159.35680   16.08060    2.73700   66.03080    0.80313    0.01465
  181.62280  181.62280  162.75360   15.36000    2.75170   66.14740    0.85591    0.00805
  181.74780  181.74780  163.45410   14.94150    2.76280   66.31730    0.86283    0.00182
  181.87280  181.87280  164.74180   15.29700    2.75960   66.48620    0.87557    0.00417
  181.99780  181.99780  162.26890   16.67440    2.75440   65.66570    0.85111    0.00629
  182.12280  182.12280  151.65260   19.19080    2.74280   64.54330    0.74613    0.00909
  182.24780  182.24780  142.50240   20.66570    2.74370   63.56820    0.65564    0.00514
  182.37280  182.37280  137.72910   21.25020    2.74740   63.10000    0.60844    0.00119
  182.49780  182.49780  141.15060   21.17990    2.74800   63.27180    0.64227    0.00212
  182.62280  182.62280  156.79450   20.43440    2.74820   63.98810    0.79698    0.00786
  182.74780  182.74780  164.17020   18.31650    2.73360   66.03940    0.86992    0.01916
  182.87280  182.87280  168.87090   17.43180    2.71360   66.73760    0.91640    0.03262
  182.99780  182.99780  168.96280   17.34930    2.70230   66.80100    0.91731    0.03926
  183.12280  183.12280  166.83400   17.90440    2.70330   66.66840    0.89626    0.03788
  183.24780  183.24780  166.10040   18.67270    2.71360   66.62720    0.88900    0.03158
  183.37280  183.37280  168.90170   18.23800    2.72320   66.79130    0.91671    0.02702
  183.49780  183.49780  170.62970   17.30770    2.72270   67.26630    0.93380    0.02796
  183.62280  183.62280  173.16340   16.91120    2.73120   67.87740    0.95885    0.02394
  183.74780  183.74780  174.78950   16.27830    2.74220   68.57500    0.97493    0.01811
  183.87280  183.87280  176.34720   15.37880    2.75240   68.98140    0.99034    0.01273
  183.99780  183.99780  180.87720   14.91400    2.76110   68.64040    0.98236    0.00734
  184.12280  184.12280  188.16340   14.81940    2.73900   69.21470    0.97439    0.01997
  184.24780  184.24780  189.28940   14.72280    2.73250   69.09070    0.96642    0.02346
  184.37280  184.37280  185.81000   15.17590    2.73530   68.89650    0.95845    0.02152
  184.49780  184.49780  179.28590   16.79220    2.74360   67.65030    0.95048    0.01637
  184.62280  184.62280  171.51040   20.05390    2.75000   64.95580    0.94250    0.01232
  184.74780  184.74780  164.33490   25.17350    2.73760   62.65830    0.87155    0.01689
  184.87280  184.87280  164.79320   33.64960    2.72570   60.60080    0.87608    0.02402
  184.99780  184.99780  172.93230   40.88350    2.72080   60.40960    0.95657    0.02993
  185.12280  185.12280  188.38820   40.63020    2.72190   61.17080    0.95573    0.02847
  185.24780  185.24780  205.25580   33.57100    2.72570   62.39330    0.95489    0.02700
  185.37280  185.37280  215.47200   25.56550    2.72820   63.96830    0.95405    0.02551
  185.49780  185.49780  221.01640   22.29820    2.72920   65.69130    0.95321    0.02489
  185.62280  185.62280  219.40230   20.62810    2.73190   65.54000    0.95238    0.02328
  185.74780  185.74780  215.93540   20.43760    2.72770   65.61600    0.95154    0.02571
  185.87280  185.87280  207.57650   21.15370    2.72210   65.76390    0.95070    0.02819
  185.99780  185.99780  194.46850   22.18500    2.71910   65.66380    0.94986    0.03067
  186.12280  186.12280  184.61670   23.18890    2.71580   65.50000    0.94903    0.03257
  186.24780  186.24780  186.98490   22.99090    2.72270   65.33580    0.94819    0.02850
  186.37280  186.37280  195.14680   23.01740    2.72570   65.10770    0.94735    0.02672
  186.49780  186.49780  202.82870   23.80080    2.72370   64.12310    0.94651    0.02786
  186.62280  186.62280  208.08760   24.46340    2.72170   63.04360    0.94567    0.02727
  186.74780  186.74780  212.56380   23.97390    2.72560   62.93080    0.94484    0.02668
  186.87280  186.87280  222.07440   24.24810    2.72640   63.17690    0.94400    0.02618
  186.99780  186.99780  232.17010   25.53470    2.72710   63.12580    0.94316    0.02574
  187.12270  187.12270  247.28640   26.20580    2.71090   63.88750    0.94232    0.03518
  187.24770  187.24770  259.84970   27.33350    2.69770   64.07870    0.94148    0.04287
  187.37270  187.37270  265.54360   29.61470    2.69650   63.15580    0.94065    0.04354
  187.49770  187.49770  266.98550   32.58050    2.69410   62.19760    0.93981    0.04491
  187.62270  187.62270  263.59480   32.65800    2.69520   62.11570    0.93897    0.04424
  187.74770  187.74770  265.98080   31.58830    2.68880   62.69710    0.93813    0.04795
  187.87270  187.87270  273.25280   30.45920    2.68620   63.00000    0.93730    0.04944
  187.99770  187.99770  280.27420   29.22470    2.69030   63.30450    0.93646    0.04701
  188.12270  188.12270  281.07750   27.82530    2.70060   64.00000    0.93562    0.04095
  188.24770  188.24770  272.71950   27.89340    2.71620   64.00000    0.93478    0.03180
  188.37270  188.37270  262.38600   28.03470    2.72640   63.54130    0.93394    0.02580
  188.49770  188.49770  246.60020   27.12110    2.73320   64.27740    0.93311    0.02179
  188.62270  188.62270  229.50890   25.51720    2.72970   65.54870    0.93227    0.02381
  188.74770  188.74770  212.32750   23.34210    2.72110   66.77120    0.93143    0.02881
  188.87270  188.87270  193.16600   20.42880    2.72300   67.75100    0.93059    0.02766
  188.99770  188.99770  182.29950   18.45500    2.71380   68.65220    0.92975    0.03301
  189.12270  189.12270  170.13640   17.37560    2.71650   69.55450    0.92892    0.03140
  189.24770  189.24770  157.88240   16.66850    2.71840   69.90000    0.80939    0.02576
  189.37270  189.37270  145.96280   16.32400    2.72470   69.54040    0.68986    0.01755
  189.49770  189.49770  135.25160   16.43420    2.73780   68.72640    0.58394    0.00587
  189.62270  189.62270  128.45340   16.96190    2.73750   68.31680    0.51671    0.00350
  189.74770  189.74770  129.93570   17.09540    2.73020   68.30000    0.53137    0.00832
  189.87270  189.87270  131.16830   17.06960    2.72210   68.66440    0.54356    0.01311
  189.99770  189.99770  132.66080   17.13570    2.71540   68.85720    0.55832    0.01800
  190.12270  190.12270  134.14630   17.26290    2.71200   68.99840    0.57301    0.02054
  190.24770  190.24770  134.60320   17.20260    2.71300   69.58650    0.57752    0.02013
  190.37270  190.37270  134.88940   16.83000    2.71760   69.42240    0.58035    0.01755
  190.49770  190.49770  137.97090   16.54530    2.71850   69.54170    0.61083    0.01818
  190.62270  190.62270  145.35160   16.90500    2.71010   69.28270    0.69785    0.02639
  190.74770  190.74770  155.57140   17.95040    2.70620   68.54580    0.78488    0.03197
  190.87270  190.87270  166.74540   19.37640    2.71500   67.47950    0.89538    0.03101
  190.99770  190.99770  178.04840   20.52900    2.72480   66.40000    0.88450    0.02486
  191.12270  191.12270  178.51980   22.55000    2.72840   65.75260    0.87361    0.02234
