~Version ---------------------------------------------------
VERS.   2.0 : CWLS log ASCII Standard -VERSION 2.0
WRAP.    NO : One line per depth step
DLM . SPACE : Column Data Section Delimiter
~Well ------------------------------------------------------
STRT.m   0.00000 : START DEPTH
STOP.m 204.74750 : STOP DEPTH
STEP.m   0.12500 : STEP
NULL.   -9999.25 : NULL VALUE
COMP.            : COMPANY
WELL.     WELL-A : 
FLD .            : 
LOC .            : LOCATION
PROV.            : PROVINCE
CNTY.            : COUNTY
STAT.            : STATE
CTRY.            : 
SRVC.            : SERVICE COMPANY
DATE.            : DATE
UWI .            : 
API .            : API NUMBER
~Curve Information -----------------------------------------
MD  .m     : 
TVD .m     : 
GR  .m     : 
LLD .API   : 
RHOB.ohm   : 
DT  .g/cc  : 
VCL .frac  : 
PHIE.frac  : 
~Params ----------------------------------------------------
~Other -----------------------------------------------------
~ASCII -----------------------------------------------------
# ...
  168.74800  168.74800  146.58670   23.33380    2.70820   65.10000    0.69603    0.02743
  168.87300  168.87300  146.06820   23.34080    2.69240   65.26250    0.69090    0.03647
  168.99800  168.99800  148.10530   23.16320    2.68340   65.61600    0.71105    0.04250
  169.12300  169.12300  153.42360   22.92240    2.68110   66.20670    0.76364    0.04584
  169.24800  169.24800  163.15590   22.58830    2.68200   66.70000    0.85989    0.04896
  169.37300  169.37300  177.19480   22.05320    2.68290   66.70000    0.99872    0.05369
  169.49800  169.49800  187.83110   21.30470    2.69480   66.70000    0.95996    0.04527
  169.62300  169.62300  184.37530   22.05560    2.71600   66.33300    0.92119    0.03140
  169.74800  169.74800  165.43560   23.73290    2.73060   65.48030    0.88243    0.02139
  169.87300  169.87300  140.95360   25.65450    2.72830   64.93730    0.64032    0.01356
  169.99800  169.99800  121.91530   27.78230    2.70710   64.94180    0.45205    0.01883
  170.12300  170.12300  116.40830   30.99530    2.67560   64.72160    0.39759    0.03518
  170.24800  170.24800  119.59790   32.68860    2.64890   65.95240    0.42913    0.05199
  170.37300  170.37300  129.15870   31.80280    2.64160   66.65810    0.52368    0.05783
  170.49800  170.49800  136.57820   31.76540    2.64120   67.04230    0.59706    0.06286
  170.62290  170.62290  141.00040   33.26810    2.63640   67.22950    0.64079    0.06732
  170.74790  170.74790  143.33210   35.73350    2.62110   67.17310    0.66385    0.07714
  170.87290  170.87290  135.76380   39.21400    2.60390   66.27050    0.58900    0.07451
  170.99790  170.99790  125.62350   45.00780    2.59810   65.14270    0.48872    0.07092
  171.12290  171.12290  115.44270   49.56370    2.60920   64.28220    0.38804    0.06731
  171.24790  171.24790  107.62490   50.46610    2.61970   63.82080    0.31073    0.06458
  171.37290  171.37290  104.00010   47.72900    2.62310   63.76490    0.27489    0.06124
  171.49790  171.49790  105.43420   44.07770    2.62940   64.05160    0.28907    0.05809
  171.62290  171.62290  111.17820   43.28380    2.63990   65.20030    0.34587    0.05460
  171.74790  171.74790  116.00000   39.29940    2.64870   65.46770    0.39355    0.05076
  171.87290  171.87290  119.07160   34.33950    2.65270   65.84780    0.42393    0.04957
  171.99790  171.99790  119.90880   30.43960    2.65330   66.23170    0.43221    0.04954
  172.12290  172.12290  119.51370   28.30640    2.65280   66.39650    0.42830    0.04968
  172.24790  172.24790  122.60140   25.03890    2.65070   66.97080    0.45884    0.05207
  172.37290  172.37290  123.63440   22.32530    2.65400   68.16640    0.46905    0.05052
  172.49790  172.49790  124.93130   20.88860    2.65350   68.85870    0.48188    0.05130
  172.62290  172.62290  124.12680   20.18060    2.64620   68.89090    0.47392    0.05527
  172.74790  172.74790  122.98070   19.77000    2.63640   68.93430    0.46259    0.06057
  172.87290  172.87290  126.36680   19.49930    2.63300   70.00000    0.50333    0.06410
  172.99790  172.99790  131.22000   19.65870    2.63240   70.00000    0.54407    0.06600
  173.12290  173.12290  132.82430   19.80570    2.63410   70.48910    0.55993    0.06560
  173.24790  173.24790  132.94840   19.73290    2.62920   71.11540    0.55069    0.06812
  173.37290  173.37290  130.95540   19.66590    2.62950   71.16020    0.54145    0.06759
  173.49790  173.49790  126.85470   19.98860    2.64250   70.29170    0.50370    0.05923
  173.62290  173.62290  123.32160   21.14620    2.65320   69.22500    0.46596    0.05087
  173.74790  173.74790  114.72730   21.90580    2.66780   69.28000    0.38097    0.03912
  173.87290  173.87290  111.12900   22.34770    2.66220   68.86590    0.34538    0.03962
  173.99790  173.99790  110.15570   22.59610    2.65950   69.12880    0.33576    0.04111
  174.12290  174.12290  111.17160   22.23660    2.65830   70.06120    0.34581    0.04334
  174.24790  174.24790  113.78500   20.81870    2.64230   70.83260    0.37165    0.05367
  174.37290  174.37290  108.55390   20.02940    2.62650   71.16030    0.36000    0.06247
  174.49790  174.49790  111.42880   19.87090    2.60840   71.63270    0.34835    0.05911
  174.62290  174.62290  113.14610   19.75830    2.60390   71.31250    0.36533    0.05683
  174.74790  174.74790  114.96310   19.71880    2.61800   70.64650    0.38330    0.05458
  174.87290  174.87290  115.65740   19.72080    2.64650   70.05410    0.39017    0.05192
  174.99790  174.99790  106.83620   19.45220    2.67490   69.40000    0.30293    0.03201
  175.12290  175.12290  103.99990   19.04110    2.68940   69.64660    0.27488    0.02246
  175.24790  175.24790  105.46280   18.87200    2.68460   69.63570    0.28935    0.02582
  175.37290  175.37290  107.97350   18.93960    2.67170   70.01680    0.31418    0.03430
  175.49790  175.49790  109.93720   19.11800    2.65740   70.41490    0.33360    0.04340
  175.62290  175.62290  110.89660   19.27810    2.64610   70.13760    0.34309    0.05037
  175.74790  175.74790  110.65390   19.57550    2.64650   69.64610    0.34069    0.05004
  175.87290  175.87290  110.51560   19.81050    2.64840   69.45130    0.33932    0.04888
  175.99790  175.99790  109.21800   19.96860    2.66300   68.32820    0.32649    0.03913
  176.12290  176.12290  105.89440   20.27770    2.68010   67.19230    0.29362    0.02861
  176.24790  176.24790  101.92800   21.15920    2.69180   66.47470    0.25439    0.02028
  176.37290  176.37290  100.92830   23.17480    2.69800   65.55430    0.24451    0.01628
  176.49790  176.49790   93.80890   26.49870    2.70600   63.99530    0.17410    0.00894
  176.62290  176.62290   89.60040   28.00250    2.70210   63.89950    0.16954    0.01104
  176.74790  176.74790   86.57800   28.49120    2.70840   63.95140    0.16498    0.00719
  176.87290  176.87290   85.32440   28.05740    2.71880   64.05280    0.16042    0.00093
  176.99790  176.99790   86.54980   26.51720    2.72220   64.45000    0.15585    0.00000
  177.12290  177.12290   88.28950   23.64260    2.73330   64.77820    0.15129    0.00000
  177.24790  177.24790   91.04060   22.53760    2.72740   64.49360    0.14673    0.00000
  177.37290  177.37290   96.44880   22.32890    2.73070   63.93080    0.20021    0.00000
  177.49790  177.49790  101.31980   23.06330    2.74120   63.64070    0.24838    0.00000
  177.62290  177.62290  102.80580   24.39760    2.75320   63.56370    0.26308    0.00000
  177.74790  177.74790   99.86210   25.53500    2.76080   63.11860    0.23397    0.00000
  177.87290  177.87290  100.89650   25.39440    2.76630   63.44680    0.24419    0.00000
  177.99790  177.99790  105.46130   24.44740    2.75700   63.84370    0.28934    0.00000
  178.12290  178.12290  113.84880   23.13190    2.75490   64.20320    0.37228    0.00000
  178.24790  178.24790  120.48950   21.94220    2.75970   64.36720    0.43795    0.00000
  178.37290  178.37290  120.06120   21.64320    2.76630   64.12310    0.43372    0.00000
  178.49790  178.49790  112.50790   23.65710    2.77710   63.13850    0.35902    0.00000
  178.62290  178.62290  103.38510   25.74690    2.77760   62.07500    0.26880    0.00000
  178.74790  178.74790   99.41900   27.35960    2.77160   62.22630    0.22958    0.00000
  178.87280  178.87280  100.36880   28.00920    2.76910   62.41420    0.23898    0.00000
  178.99780  178.99780  104.97560   27.07920    2.77070   62.57320    0.28453    0.00000
  179.12280  179.12280  111.22880   24.32120    2.77070   63.45510    0.34637    0.00000
  179.24780  179.24780  114.53210   23.09040    2.78080   64.11150    0.37904    0.00000
  179.37280  179.37280  113.79520   23.86130    2.77040   63.34810    0.37175    0.00000
  179.49780  179.49780  111.66110   25.53450    2.76810   62.52260    0.35065    0.00000
  179.62280  179.62280  106.85580   28.86900    2.77030   61.74960    0.30313    0.00000
  179.74780  179.74780   99.67930   33.63110    2.76970   60.70930    0.23216    0.00000
  179.87280  179.87280   94.90040   37.04280    2.76770   58.80000    0.18490    0.00000
