~Version ---------------------------------------------------
VERS.   2.0 : CWLS log ASCII Standard -VERSION 2.0
WRAP.    NO : One line per depth step
DLM . SPACE : Column Data Section Delimiter
~Well ------------------------------------------------------
STRT.m   0.00000 : START DEPTH
STOP.m 204.74750 : STOP DEPTH
STEP.m   0.12500 : STEP
NULL.   -9999.25 : NULL VALUE
COMP.            : COMPANY
WELL.     WELL-A : 
FLD .            : 
LOC .            : LOCATION
PROV.            : PROVINCE
CNTY.            : COUNTY
STAT.            : STATE
CTRY.            : 
SRVC.            : SERVICE COMPANY
DATE.            : DATE
UWI .            : 
API .            : API NUMBER
~Curve Information -----------------------------------------
MD  .m     : 
TVD .m     : 
GR  .m     : 
LLD .API   : 
RHOB.ohm   : 
DT  .g/cc  : 
VCL .frac  : 
PHIE.frac  : 
~Params ----------------------------------------------------
~Other -----------------------------------------------------
~ASCII -----------------------------------------------------
# ...
   56.24930   56.24930  166.80000    6.47280    2.72690   78.02110    0.89592    0.02407
   56.37430   56.37430  162.60570    6.38500    2.75110   78.16230    0.85444    0.00834
   56.49930   56.49930  156.65280    6.38730    2.75970   78.33320    0.79558    0.00108
   56.62430   56.62430  151.53430    6.47720    2.75010   78.50000    0.74496    0.00478
   56.74930   56.74930  148.22660    6.64980    2.73640   78.41670    0.71225    0.01155
   56.87430   56.87430  145.65050    6.89900    2.70900   77.59620    0.68677    0.02661
   56.99930   56.99930  151.15580    7.11560    2.71500   76.92050    0.74122    0.02516
   57.12430   57.12430  153.59100    7.34370    2.72620   76.48200    0.76530    0.01953
   57.24930   57.24930  154.60300    7.41560    2.73950   76.26350    0.77531    0.01213
   57.37430   57.37430  155.76570    7.29340    2.75250   76.29220    0.78680    0.00496
   57.49930   57.49930  154.56400    7.20690    2.75670   76.70000    0.77492    0.00206
   57.62430   57.62430  155.63390    7.46160    2.76540   77.03010    0.78550    0.00000
   57.74930   57.74930  155.77110    7.56990    2.77790   76.45420    0.78686    0.00000
   57.87430   57.87430  156.31400    7.70620    2.77280   76.00690    0.79223    0.00000
   57.99930   57.99930  155.95100    7.86800    2.75390   75.87150    0.78864    0.00421
   58.12430   58.12430  153.88340    7.94660    2.73670   75.81060    0.76819    0.01350
   58.24930   58.24930  158.10300    7.78640    2.72370   75.89260    0.80992    0.02268
   58.37430   58.37430  161.23880    7.65710    2.72330   75.97470    0.84093    0.02409
   58.49930   58.49930  164.38560    7.60790    2.73100   76.28360    0.87205    0.02077
   58.62430   58.62430  163.01880    7.55050    2.75100   76.57740    0.85853    0.00856
   58.74930   58.74930  157.20700    7.44010    2.76980   76.61730    0.80106    0.00000
   58.87430   58.87430  153.21880    7.31550    2.75490   76.34090    0.76162    0.00260
   58.99930   58.99930  146.19180    7.25340    2.73490   77.57160    0.69213    0.01167
   59.12430   59.12430  147.18410    7.20170    2.71530   77.59950    0.70194    0.02350
   59.24930   59.24930  147.97310    7.19890    2.70660   77.74400    0.70974    0.02888
   59.37430   59.37430  149.87980    7.27600    2.70500   78.12310    0.72860    0.03053
   59.49930   59.49930  154.79990    7.43240    2.70150   78.34870    0.77725    0.03644
   59.62430   59.62430  153.53160    7.58200    2.69110   78.02050    0.76471    0.04003
   59.74930   59.74930  150.10780    7.65660    2.69290   78.07690    0.73085    0.03770
   59.87430   59.87430  146.84930    7.65940    2.69050   78.04110    0.69863    0.03788
   59.99930   59.99930  147.10360    7.64150    2.68640   78.24520    0.70114    0.04037
   60.12430   60.12430  151.65680    7.61000    2.68290   78.46250    0.74617    0.04412
   60.24930   60.24930  158.47580    7.52180    2.68100   78.03480    0.81360    0.04779
   60.37430   60.37430  165.18780    7.32910    2.69330   78.60910    0.87998    0.04507
   60.49930   60.49930  163.88730    7.14430    2.69890   78.76910    0.86712    0.03935
   60.62430   60.62430  160.87820    7.02660    2.70200   78.95310    0.83736    0.03641
   60.74930   60.74930  160.01040    7.02000    2.70350   79.29810    0.82878    0.03521
   60.87430   60.87430  162.47130    7.12480    2.70710   79.59460    0.85312    0.03402
   60.99930   60.99930  164.78030    7.25330    2.72550   79.02020    0.87595    0.02413
   61.12430   61.12430  169.76390    7.32760    2.72440   78.36670    0.92523    0.02664
   61.24930   61.24930  166.91440    7.40140    2.71310   78.50560    0.89705    0.03218
   61.37430   61.37430  163.51490    7.32470    2.70180   78.74310    0.86344    0.03752
   61.49930   61.49930  161.09490    7.10240    2.69640   79.10190    0.83950    0.03977
   61.62430   61.62430  157.22290    6.88930    2.69830   80.05050    0.80121    0.03720
   61.74930   61.74930  160.85220    6.98580    2.71040   80.62480    0.83710    0.03149
   61.87430   61.87430  164.17430    6.97890    2.73280   79.98800    0.86996    0.01963
   61.99930   61.99930  166.57180    7.02130    2.75480   79.48720    0.89367    0.00767
   62.12430   62.12430  167.32640    7.10390    2.75400   79.15900    0.90113    0.00842
   62.24930   62.24930  166.34100    7.14500    2.72780   78.93460    0.89138    0.02337
   62.37430   62.37430  164.62640    7.00430    2.71560   79.10000    0.87443    0.02986
   62.49930   62.49930  161.63440    6.92730    2.70940   79.34420    0.84484    0.03237
   62.62430   62.62430  158.67420    7.01320    2.72330   79.84350    0.81557    0.02313
   62.74930   62.74930  157.62610    7.13210    2.73840   79.91860    0.82620    0.01470
   62.87430   62.87430  160.82400    7.25430    2.74950   79.78220    0.83683    0.00861
   62.99930   62.99930  168.46410    7.40960    2.75860   79.96220    0.91238    0.00615
   63.12430   63.12430  168.69090    7.58180    2.75320   79.63400    0.91462    0.00940
   63.24930   63.24930  169.69340    7.74780    2.73670   79.01250    0.92454    0.01942
   63.37430   63.37430  167.64160    7.85030    2.72830   78.74450    0.90425    0.02356
   63.49920   63.49920  166.43610    7.87110    2.71840   78.47500    0.89232    0.02890
   63.62420   63.62420  168.08600    7.80700    2.70510   78.13910    0.90864    0.03730
   63.74920   63.74920  169.97230    7.66810    2.70410   78.30160    0.92729    0.03859
   63.87420   63.87420  174.40350    7.58560    2.71630   78.38350    0.97111    0.03312
   63.99920   63.99920  177.01320    7.47980    2.74620   78.20340    0.99692    0.01661
   64.12420   64.12420  177.32440    7.38490    2.77480   78.52840    1.00000    0.00000
   64.24920   64.24920  176.09470    7.33930    2.78090   78.94070    0.98784    0.00000
   64.37420   64.37420  174.10480    7.36570    2.75520   78.77660    0.96816    0.01026
   64.49920   64.49920  169.76520    7.42930    2.73460   78.61250    0.92525    0.02068
   64.62420   64.62420  169.20380    7.36480    2.72760   78.75140    0.91969    0.02456
   64.74920   64.74920  164.78230    7.39020    2.72770   78.91540    0.87597    0.02284
   64.87420   64.87420  162.58360    7.41840    2.72260   79.00000    0.85423    0.02500
   64.99920   64.99920  164.48120    7.38930    2.71140   79.06540    0.87299    0.03226
   65.12420   65.12420  166.19390    7.31570    2.70570   79.30380    0.88993    0.03624
   65.24920   65.24920  172.27460    7.18980    2.69350   79.38580    0.91208    0.04456
   65.37420   65.37420  170.67380    7.01290    2.68010   79.73890    0.93423    0.05289
   65.49920   65.49920  169.60290    6.87730    2.66720   80.04950    0.92364    0.06003
   65.62420   65.62420  168.03370    6.77830    2.66190   80.35950    0.90812    0.05976
   65.74920   65.74920  164.78230    6.68130    2.66610   80.70000    0.87597    0.05887
   65.87420   65.87420  167.79660    6.57000    2.66340   80.70000    0.90578    0.05666
   65.99920   65.99920  169.49870    6.56670    2.67750   81.55670    0.92261    0.05397
   66.12420   66.12420  173.25060    6.65310    2.68820   81.74010    0.94637    0.04861
   66.24920   66.24920  174.30380    6.78170    2.69770   81.49010    0.97013    0.04396
   66.37420   66.37420  170.63420    6.94490    2.70710   81.22400    0.93384    0.03708
   66.49920   66.49920  163.96820    7.15950    2.71490   81.22090    0.86792    0.03172
   66.62420   66.62420  162.11060    7.29390    2.71690   80.15600    0.84955    0.02816
   66.74920   66.74920  165.61370    7.32860    2.71260   79.71990    0.88419    0.03199
   66.87420   66.87420  170.48760    7.30730    2.70750   79.80830    0.93239    0.03679
   66.99920   66.99920  172.35150    7.27840    2.70240   79.72690    0.92858    0.03963
   67.12420   67.12420  169.71720    7.25010    2.69920   79.24850    0.92477    0.04136
   67.24920   67.24920  167.45250    7.13910    2.70430   79.49420    0.90238    0.03753
   67.37420   67.37420  166.18730    6.83670    2.70230   79.58010    0.88986    0.03822
