~Version ---------------------------------------------------
VERS.   2.0 : CWLS log ASCII Standard -VERSION 2.0
WRAP.    NO : One line per depth step
DLM . SPACE : Column Data Section Delimiter
~Well ------------------------------------------------------
STRT.m   0.00000 : START DEPTH
STOP.m 204.74750 : STOP DEPTH
STEP.m   0.12500 : STEP
NULL.   -9999.25 : NULL VALUE
COMP.            : COMPANY
WELL.     WELL-A : 
FLD .            : 
LOC .            : LOCATION
PROV.            : PROVINCE
CNTY.            : COUNTY
STAT.            : STATE
CTRY.            : 
SRVC.            : SERVICE COMPANY
DATE.            : DATE
UWI .            : 
API .            : API NUMBER
~Curve Information -----------------------------------------
MD  .m     : 
TVD .m     : 
GR  .m     : 
LLD .API   : 
RHOB.ohm   : 
DT  .g/cc  : 
VCL .frac  : 
PHIE.frac  : 
~Params ----------------------------------------------------
~Other -----------------------------------------------------
~ASCII -----------------------------------------------------
# ...
   22.49970   22.49970  124.51050    5.48460    2.68510   78.58850    0.47772    0.03266
   22.62470   22.62470  126.83050    5.17560    2.69230   78.30000    0.50794    0.02960
   22.74970   22.74970  130.62390    4.96060    2.68770   79.77690    0.53817    0.03343
   22.87470   22.87470  132.44910    4.77130    2.67280   79.63870    0.55622    0.04283
   22.99970   22.99970  135.82710    4.61110    2.56520   80.79050    0.58963    0.04543
   23.12470   23.12470  137.40670    4.52650    2.37420   80.33750    0.60525    0.04735
   23.24970   23.24970  136.51740    4.61380    2.19300   78.04360    0.59645    0.04835
   23.37470   23.37470  134.32100    4.98610    2.13970   75.98200    0.57473    0.04886
   23.49970   23.49970  130.83690    5.73630    2.19740   78.60770    0.54028    0.04888
   23.62470   23.62470  131.09590    6.71410    2.42180   76.93440    0.54284    0.05031
   23.74970   23.74970  133.45880    7.43950    2.57860   78.50190    0.56621    0.05252
   23.87470   23.87470  134.70780    7.69580    2.65460   79.40480    0.57856    0.05432
   23.99970   23.99970  132.84280    7.56590    2.68120   76.96250    0.56012    0.03807
   24.12470   24.12470  128.51920    7.49630    2.69460   73.80000    0.51736    0.02861
   24.24970   24.24970  122.44760    7.59140    2.68760   73.21980    0.45732    0.03043
   24.37470   24.37470  116.97640    7.80830    2.68320   73.03510    0.40321    0.03095
   24.49970   24.49970  114.41200    8.36040    2.67480   72.90610    0.37785    0.03490
   24.62470   24.62470  114.33810    9.07300    2.67140   71.87180    0.37712    0.03686
   24.74970   24.74970  115.34960    9.55720    2.68290   69.76560    0.38712    0.03052
   24.87470   24.87470  118.36680    9.34850    2.69110   70.99440    0.41696    0.02685
   24.99970   24.99970  120.19080    9.12090    2.69980   70.05000    0.43500    0.02245
   25.12470   25.12470  123.33180    8.90560    2.70410   70.15640    0.46606    0.02111
   25.24970   25.24970  127.30240    8.64310    2.70220   71.12560    0.50533    0.02371
   25.37470   25.37470  130.38860    8.40840    2.69870   72.01540    0.51946    0.02629
   25.49970   25.49970  130.16170    8.41970    2.70440   71.71920    0.53360    0.02350
   25.62470   25.62470  126.88580    8.37990    2.70570   72.21070    0.52404    0.02237
   25.74970   25.74970  128.22890    7.80810    2.71200   71.83000    0.51449    0.01833
   25.87470   25.87470  132.56470    7.10550    2.70690   72.63320    0.55737    0.02293
   25.99970   25.99970  137.21980    6.43840    2.69490   74.38750    0.60340    0.03170
   26.12470   26.12470  140.33950    5.87210    2.68740   76.27180    0.63634    0.03733
   26.24970   26.24970  143.88120    5.45560    2.69000   78.56560    0.66928    0.03706
   26.37470   26.37470  143.44810    5.38050    2.68990   79.47240    0.66499    0.03695
   26.49970   26.49970  145.10360    5.41960    2.69670   79.22560    0.68136    0.03360
   26.62470   26.62470  145.37820    5.49880    2.69670   79.31350    0.68408    0.03370
   26.74970   26.74970  144.13310    5.55550    2.68760   79.68980    0.67177    0.03856
   26.87470   26.87470  144.90560    5.54690    2.68040   79.03700    0.67941    0.04306
   26.99970   26.99970  148.67290    5.56600    2.68180   79.61140    0.70040    0.04303
   27.12470   27.12470  149.15130    5.74530    2.68860   79.14490    0.72139    0.03985
   27.24970   27.24970  148.90520    5.80230    2.69340   78.90000    0.71896    0.03745
   27.37470   27.37470  146.38420    5.75220    2.69650   78.69900    0.69403    0.03419
   27.49970   27.49970  141.70870    5.69550    2.70410   78.26900    0.64779    0.02800
   27.62470   27.62470  141.46600    5.71430    2.73030   78.10510    0.64539    0.01259
   27.74970   27.74970  144.86370    5.60580    2.73660   78.02050    0.67899    0.01017
   27.87470   27.87470  150.57310    5.49860    2.72920   78.18460    0.73545    0.01664
   27.99970   27.99970  153.73300    5.51140    2.71540   78.86670    0.76670    0.02590
   28.12470   28.12470  153.05360    5.62130    2.70370   79.47200    0.75998    0.03248
   28.24970   28.24970  150.25950    5.71210    2.70030   79.13010    0.73235    0.03342
   28.37470   28.37470  147.09990    5.77070    2.70090   79.45830    0.70111    0.03189
   28.49970   28.49970  145.74330    5.82170    2.69500   79.28510    0.68769    0.03483
   28.62470   28.62470  148.12400    5.96020    2.69450   79.14630    0.71123    0.03602
   28.74970   28.74970  149.28870    6.17210    2.69980   78.81460    0.72275    0.03335
   28.87470   28.87470  147.98070    6.40940    2.70800   78.10610    0.70982    0.02807
   28.99970   28.99970  152.10720    6.61480    2.71500   77.20000    0.75062    0.02552
   29.12470   29.12470  148.49210    6.81310    2.70450   76.95480    0.74612    0.03149
   29.24970   29.24970  151.19700    6.92780    2.70340   76.64490    0.74162    0.03196
   29.37470   29.37470  153.39540    6.81000    2.70490   76.95830    0.76336    0.03191
   29.49970   29.49970  153.52060    6.52380    2.70460   77.83410    0.76460    0.03213
   29.62470   29.62470  152.90020    6.23290    2.70120   78.82710    0.75847    0.03389
   29.74970   29.74970  150.20390    5.96040    2.69860   79.89380    0.73180    0.03440
   29.87470   29.87470  150.04470    5.75570    2.69310   80.73880    0.73023    0.03776
   29.99970   29.99970  152.41780    5.71640    2.68690   81.11180    0.75370    0.04207
   30.12470   30.12470  156.05440    5.78280    2.68530   81.04830    0.78966    0.04437
   30.24970   30.24970  157.46620    5.91820    2.68870   80.80000    0.76562    0.04147
   30.37470   30.37470  151.19350    6.15630    2.69080   80.77310    0.74159    0.03933
   30.49960   30.49960  146.86150    6.48610    2.68830   79.62440    0.69875    0.03917
   30.62460   30.62460  145.23310    6.64660    2.68220   79.46600    0.69369    0.03968
   30.74960   30.74960  145.83840    6.68740    2.68590   79.16400    0.68863    0.04019
   30.87460   30.87460  148.12710    6.69190    2.69610   78.91990    0.71126    0.03508
   30.99960   30.99960  150.97740    6.74260    2.70210   79.20000    0.73945    0.03264
   31.12460   31.12460  151.34200    6.86730    2.69230   79.20000    0.74306    0.03851
   31.24960   31.24960  152.60910    7.28920    2.69510   78.28650    0.75559    0.03735
   31.37460   31.37460  149.22770    7.82950    2.69240   77.30190    0.72215    0.03766
   31.49960   31.49960  141.34180    8.38820    2.69810   76.35820    0.64416    0.03137
   31.62460   31.62460  132.34780    8.82470    2.70910   75.32400    0.55522    0.02157
   31.74960   31.74960  127.92120    8.95320    2.70270   74.02080    0.51145    0.02365
   31.87460   31.87460  129.75570    8.43990    2.69740   74.43110    0.52959    0.02744
   31.99960   31.99960  139.77060    7.70470    2.69530   75.11440    0.58379    0.03072
   32.12460   32.12460  145.24950    7.03710    2.69760   75.80190    0.63800    0.03143
   32.24960   32.24960  146.19980    6.51690    2.70940   76.07110    0.69220    0.02658
   32.37460   32.37460  145.69740    6.13910    2.73530   76.02820    0.68724    0.01125
   32.49960   32.49960  142.90240    5.87560    2.77510   77.34100    0.65960    0.00000
   32.62460   32.62460  147.99970    5.72390    2.77830   78.18370    0.71000    0.00000
   32.74960   32.74960  149.95680    5.63950    2.75860   78.76190    0.72936    0.00000
   32.87460   32.87460  149.41850    5.54870    2.73140   79.71920    0.72403    0.01492
   32.99960   32.99960  147.57940    5.46670    2.71900   80.45640    0.70585    0.02148
   33.12460   33.12460  146.03180    5.47230    2.74200   79.80260    0.69054    0.00745
   33.24960   33.24960  151.77250    5.51310    2.76200   81.11540    0.74731    0.00000
   33.37460   33.37460  156.65270    5.56690    2.74970   81.08840    0.79557    0.00693
   33.49960   33.49960  157.92280    5.58130    2.72320   81.15740    0.79286    0.02233
   33.62460   33.62460  156.10270    5.60270    2.69790   81.30000    0.79014    0.03702
